     3.05           OBSERVATION DATA    M: Mixed            RINEX VERSION / TYPE
                                        20230802 191051 UTC PGM / RUN BY / DATE 
0000                                                        MARKER NAME         
                                                            MARKER NUMBER       
                                                            MARKER TYPE         
                                                            OBSERVER / AGENCY   
                                                            REC # / TYPE / VERS 
                                                            ANT # / TYPE        
   935772.7134 -5133991.2270  3655036.9479                  APPROX POSITION XYZ 
        0.0000        0.0000        0.0000                  ANTENNA: DELTA H/E/N
G    8 C1C L1C D1C S1C C2W L2W D2W S2W                      SYS / # / OBS TYPES 
R    8 C1C L1C D1C S1C C2P L2P D2P S2P                      SYS / # / OBS TYPES 
E    8 C1C L1C D1C S1C C7Q L7Q D7Q S7Q                      SYS / # / OBS TYPES 
C    8 C2I L2I D2I S2I C7I L7I D7I S7I                      SYS / # / OBS TYPES 
  2023     8     2    19     9   18.0000000     GPS         TIME OF FIRST OBS   
  2023     8     2    19    31   34.2000000     GPS         TIME OF LAST OBS    
G                                                           SYS / PHASE SHIFT   
R                                                           SYS / PHASE SHIFT   
E                                                           SYS / PHASE SHIFT   
C                                                           SYS / PHASE SHIFT   
  0                                                         GLONASS SLOT / FRQ #
 C1C    0.000 C1P    0.000 C2C    0.000 C2P    0.000        GLONASS COD/PHS/BIS 
                                                            END OF HEADER       
                                                                                                                                                                                                                                                                                                                                                                                                                                                                                                                                                                                                                                                                                                                                                                                                                                                                                                                                                                                                                                                                                                                                                                                                                                                                                                                                                                                                                                                                                                                                                                                                                                                                                                                                                                                                                                                                                                                                                                                                                                                                                                                                                                                                                                                                                                                        
> 2023  8  2 19 30 58.0000000  0 28                     
G 5  23656556.038   124316043.016        2444.955          41.000    23656554.806    96869645.930        1905.326          38.000  
G10  24368703.648   128058408.386       -2328.427          43.000    24368704.917    99785739.114       -1814.546          39.000  
G13  22484410.388   118156386.290        3173.297          41.000    22484407.010    92069908.377        2472.703          31.000  
G15  20291447.535   106632275.901        1640.829          46.000    20291444.390    83090084.306        1278.589          43.000  
G18  20497675.912   107716016.728       -1174.452          46.000    20497672.374    83934560.083        -915.162          45.000  
G23  21639918.665   113718552.465       -1595.397          45.000    21639915.645    88611861.161       -1243.185          43.000  
G24  21904216.060   115107451.646       -2676.617          45.000    21904218.972    89694124.530       -2085.689          43.000  
G27  24703829.740   129819507.860       -1778.083          41.000    24703830.545   101158054.501       -1385.537          37.000  
G29  23496056.242   123472606.411        3389.255          41.000    23496059.798    96212412.405        2640.816          39.000  
R 2  23884354.060   127451511.192        3282.566          40.000    23884359.171    99128952.452        2552.943          38.000  
R 3  20272239.032   108518880.054        1944.249          49.000    20272239.515    84403570.762        1512.252          48.000  
R 4  20188828.899   108110267.099        -946.563          50.000    20188830.757    84085764.392        -736.123          48.000  
R 5  23617331.925   126248174.839       -2913.225          44.000    23617341.806    98193076.344       -2265.710          40.000  
R12  23882886.048   127578106.914        -496.723          42.000    23882893.625    99227412.398        -386.372          40.000  
R17  22682316.840   121377697.986        4362.971          42.000    22682332.439    94404855.743        3393.427          44.000  
R18  19527322.404   104238173.353        1864.901          49.000    19527324.352    81074129.306        1450.542          46.000  
R19  19943493.825   106684239.865       -1896.853          37.000    19943498.650    82976658.700       -1475.407          44.000  
E 3  24515807.449   128831463.891       -1700.897          45.000    24515809.022    98715003.080       -1303.372          43.000  
E 5  23417197.653   123058199.690         792.697          46.000    23417198.439    94291347.983         607.339          44.000  
E 9  26831554.059   141000788.695        2564.978          39.000    26831557.758   108039569.233        1965.258          40.000  
E15  25617539.608   134621080.511       -2360.050          45.000    25617543.021   103151226.205       -1808.409          42.000  
C14  25249419.597   131480354.489        2405.499          37.000    25249415.345   101668950.101        1859.948          42.000  
C24  25631930.890   133472190.483        -858.157          40.000                                                                  
C25  25511861.420   132846990.389       -2471.204          42.000                                                                  
C27  22506357.979   117196514.060        -451.221          46.000                                                                  
C28  22718584.398   118301614.911        2319.590          48.000                                                                  
C30  25831651.316   134512190.122       -2660.837          43.000                                                                  
C32  25225507.968   131355786.291       -2101.613          41.000                                                                  
> 2023  8  2 19 30 58.2000000  0 28                     
G 5  23656649.047   124316531.692        2444.764          42.000    23656647.724    96870026.703        1905.013          38.000  
G10  24368614.964   128057942.369       -2328.763          43.000    24368616.197    99785376.009       -1814.562          39.000  
G13  22484531.075   118157020.630        3173.012          41.000    22484527.626    92070402.642        2472.479          31.000  
G15  20291509.916   106632603.778        1640.734          46.000    20291507.003    83090339.783        1278.466          43.000  
G18  20497631.115   107715781.550       -1174.536          46.000    20497627.452    83934376.836        -915.179          45.000  
G23  21639857.892   113718233.057       -1595.682          45.000    21639854.944    88611612.282       -1243.408          43.000  
G24  21904114.135   115106916.024       -2676.829          46.000    21904116.976    89693707.160       -2085.857          43.000  
G27  24703762.053   129819151.982       -1778.021          41.000    24703763.053   101157777.198       -1385.499          37.000  
G29  23496185.095   123473283.963        3389.098          41.000    23496188.902    96212940.377        2640.799          39.000  
R 2  23884476.999   127452167.364        3282.119          39.000    23884482.127    99129462.782        2552.764          38.000  
R 3  20272311.670   108519268.608        1944.076          49.000    20272312.081    84403872.950        1511.989          48.000  
R 4  20188793.590   108110077.502        -946.635          50.000    20188795.466    84085616.907        -736.347          48.000  
R 5  23617222.763   126247591.897       -2913.382          43.000    23617232.555    98192622.929       -2266.001          40.000  
R12  23882867.590   127578007.285        -496.840          42.000    23882875.077    99227334.893        -386.461          40.000  
R17  22682479.984   121378570.257        4362.663          43.000    22682495.190    94405534.164        3393.108          44.000  
R18  19527392.254   104238546.042        1864.840          49.000    19527394.202    81074419.160        1450.324          46.000  
R19  19943422.957   106683860.157       -1897.099          37.000    19943427.692    82976363.388       -1475.474          44.000  
E 3  24515742.746   128831123.401       -1701.042          45.000    24515744.264    98714742.180       -1303.500          43.000  
E 5  23417227.780   123058357.922         792.558          46.000    23417228.530    94291469.237         607.194          44.000  
E 9  26831651.660   141001301.358        2564.799          39.000    26831655.358   108039962.053        1965.084          40.000  
E15  25617449.744   134620608.177       -2360.245          45.000    25617453.139   103150864.284       -1808.644          42.000  
C14  25249511.998   131480835.274        2405.287          37.000    25249507.656   101669321.859        1859.718          42.000  
C24  25631897.850   133472018.558        -858.308          40.000                                                                  
C25  25511766.535   132846495.809       -2471.590          42.000                                                                  
C27  22506340.557   117196423.529        -451.299          46.000                                                                  
C28  22718673.457   118302078.558        2319.529          48.000                                                                  
C30  25831549.123   134511657.680       -2660.876          43.000                                                                  
C32  25225427.218   131355365.665       -2101.870          41.000                                                                  
> 2023  8  2 19 30 58.4000000  0 28                     
G 5  23656742.716   124317023.893        2445.055          42.000    23656741.358    96870410.257        1905.315          38.000  
G10  24368526.924   128057479.871       -2328.500          44.000    24368528.192    99785015.642       -1814.233          39.000  
G13  22484652.459   118157658.482        3173.359          41.000    22484649.100    92070899.693        2472.748          31.000  
G15  20291572.940   106632935.145        1640.862          46.000    20291570.063    83090598.000        1278.617          43.000  
G18  20497586.978   107715549.875       -1174.356          46.000    20497583.333    83934196.308        -915.106          45.000  
G23  21639797.745   113717917.160       -1595.536          45.000    21639794.975    88611366.134       -1243.218          43.000  
G24  21904012.925   115106383.906       -2676.562          46.000    21904015.748    89693292.515       -2085.695          43.000  
G27  24703694.901   129818799.614       -1777.747          41.000    24703695.848   101157502.632       -1385.258          37.000  
G29  23496314.610   123473965.017        3389.271          41.000    23496318.559    96213471.066        2641.028          39.000  
R 2  23884600.349   127452827.078        3282.543          39.000    23884605.781    99129975.921        2552.999          38.000  
R 3  20272385.004   108519660.728        1944.322          49.000    20272385.326    84404177.939        1512.190          48.000  
R 4  20188758.942   108109891.479        -946.328          50.000    20188760.782    84085472.232        -736.100          48.000  
R 5  23617114.280   126247012.553       -2912.929          43.000    23617123.983    98192172.327       -2265.755          40.000  
R12  23882849.881   127577911.235        -496.432          42.000    23882857.208    99227260.199        -386.126          40.000  
R17  22682643.771   121379446.116        4363.088          44.000    22682658.495    94406215.383        3393.404          44.000  
R18  19527462.712   104238922.304        1865.164          49.000    19527464.677    81074711.804        1450.542          46.000  
R19  19943352.696   106683484.051       -1896.746          37.000    19943357.413    82976070.856       -1475.256          44.000  
E 3  24515678.685   128830786.409       -1701.042          45.000    24515680.115    98714483.972       -1303.299          43.000  
E 5  23417258.532   123058519.630         792.468          46.000    23417259.283    94291593.141         607.328          45.000  
E 9  26831749.886   141001817.530        2564.726          39.000    26831753.584   108040357.553        1965.308          40.000  
E15  25617360.542   134620139.360       -2360.200          45.000    25617363.901   103150505.054       -1808.370          42.000  
C14  25249604.953   131481319.494        2405.287          37.000    25249600.575   101669696.322        1860.048          42.000  
C24  25631865.507   133471850.102        -858.129          40.000                                                                  
C25  25511672.276   132846004.715       -2471.316          42.000                                                                  
C27  22506323.814   117196336.482        -451.004          46.000                                                                  
C28  22718763.160   118302545.671        2319.785          48.000                                                                  
C30  25831447.591   134511128.710       -2660.629          43.000                                                                  
C32  25225347.093   131354948.519       -2101.518          41.000                                                                  
> 2023  8  2 19 30 58.6000000  0 28                     
G 5  23656835.671   124317512.523        2444.692          41.000    23656834.527    96870790.977        1904.712          38.000  
G10  24368438.222   128057013.857       -2328.679          44.000    24368439.598    99784652.489       -1814.590          39.000  
G13  22484773.093   118158292.778        3172.957          41.000    22484769.716    92071393.949        2472.435          31.000  
G15  20291635.374   106633262.996        1640.722          46.000    20291632.426    83090853.471        1278.427          43.000  
G18  20497542.216   107715314.691       -1174.446          46.000    20497538.571    83934013.048        -915.151          45.000  
G23  21639736.901   113717597.743       -1595.654          45.000    21639734.185    88611117.225       -1243.408          42.000  
G24  21903911.036   115105848.293       -2676.578          46.000    21903913.859    89692875.159       -2085.678          43.000  
G27  24703627.088   129818443.730       -1777.943          41.000    24703627.874   101157225.297       -1385.565          37.000  
G29  23496443.410   123474642.554        3389.215          41.000    23496447.663    96213999.004        2640.894          39.000  
R 2  23884723.091   127453483.205        3281.973          39.000    23884728.916    99130486.232        2552.552          38.000  
R 3  20272457.660   108520049.254        1944.076          49.000    20272457.928    84404480.126        1512.017          48.000  
R 4  20188723.615   108109701.868        -946.535          50.000    20188725.419    84085324.764        -736.207          48.000  
R 5  23617005.261   126246429.608       -2913.125          43.000    23617014.821    98191718.965       -2265.576          40.000  
R12  23882831.441   127577811.627        -496.617          42.000    23882838.535    99227182.733        -386.199          40.000  
R17  22682807.076   121380318.386        4362.920          44.000    22682821.300    94406893.809        3393.276          44.000  
R18  19527532.544   104239295.022        1865.180          49.000    19527534.491    81075001.701        1450.626          46.000  
R19  19943281.630   106683104.406       -1896.634          37.000    19943286.348    82975775.555       -1475.334          43.000  
E 3  24515613.928   128830445.914       -1701.003          45.000    24515615.339    98714223.075       -1303.293          43.000  
E 5  23417288.642   123058677.847         792.479          46.000    23417289.356    94291714.370         607.283          44.000  
E 9  26831847.450   141002330.158        2564.598          39.000    26831851.221   108040750.375        1965.258          40.000  
E15  25617270.661   134619667.020       -2360.234          45.000    25617274.038   103150143.122       -1808.577          41.000  
C14  25249697.354   131481800.239        2405.096          37.000    25249692.904   101670068.040        1859.718          42.000  
C24  25631832.557   133471678.177        -858.269          40.000                                                                  
C25  25511577.374   132845510.132       -2471.495          42.000                                                                  
C27  22506306.427   117196245.940        -451.188          46.000                                                                  
C28  22718852.219   118303009.315        2319.758          48.000                                                                  
C30  25831345.362   134510596.253       -2660.814          43.000                                                                  
C32  25225266.254   131354527.895       -2101.707          41.000                                                                  
> 2023  8  2 19 30 58.8000000  0 28                     
G 5  23656928.661   124318001.361        2444.692          41.000    23656927.625    96871171.922        1905.187          38.000  
G10  24368349.591   128056548.022       -2328.640          44.000    24368350.735    99784289.517       -1814.389          38.000  
G13  22484893.834   118158927.282        3173.079          41.000    22484890.403    92071888.363        2472.530          31.000  
G15  20291697.809   106633591.085        1641.046          45.000    20291694.932    83091109.136        1278.784          43.000  
G18  20497497.455   107715079.741       -1174.038          46.000    20497493.774    83933829.984        -914.721          45.000  
G23  21639676.075   113717278.539       -1595.352          44.000    21639673.573    88610868.498       -1243.196          42.000  
G24  21903809.182   115105312.912       -2676.310          45.000    21903811.916    89692457.981       -2085.443          43.000  
G27  24703559.400   129818088.048       -1777.837          41.000    24703560.419   101156948.179       -1385.141          37.000  
G29  23496572.264   123475320.321        3389.500          41.000    23496576.659    96214527.170        2641.229          39.000  
R 2  23884845.976   127454139.498        3282.057          39.000    23884852.034    99130996.702        2552.681          38.000  
R 3  20272530.333   108520437.996        1944.306          49.000    20272530.530    84404782.490        1512.363          48.000  
R 4  20188688.359   108109512.511        -946.127          50.000    20188690.110    84085177.493        -735.737          48.000  
R 5  23616896.224   126245846.908       -2912.935          43.000    23616905.767    98191265.754       -2265.431          39.000  
R12  23882812.821   127577712.218        -496.399          42.000    23882819.915    99227105.413        -386.082          40.000  
R17  22682970.292   121381190.884        4363.088          45.000    22682984.176    94407572.436        3393.650          43.000  
R18  19527602.519   104239667.999        1865.667          49.000    19527604.324    81075291.808        1451.163          46.000  
R19  19943210.530   106682724.957       -1896.310          37.000    19943215.444    82975480.461       -1474.865          43.000  
E 3  24515549.170   128830105.647       -1700.707          45.000    24515550.582    98713962.338       -1303.221          43.000  
E 5  23417318.769   123058836.260         792.708          46.000    23417319.484    94291835.756         607.406          44.000  
E 9  26831945.069   141002842.985        2564.632          39.000    26831948.804   108041143.282        1965.079          40.000  
E15  25617180.815   134619194.858       -2360.178          45.000    25617184.175   103149781.349       -1808.448          41.000  
C14  25249789.772   131482281.173        2405.370          37.000    25249785.198   101670439.913        1859.646          41.000  
C24  25631799.588   133471506.436        -858.090          40.000                                                                  
C25  25511482.435   132845015.741       -2471.366          42.000                                                                  
C27  22506289.041   117196155.665        -450.707          46.000                                                                  
C28  22718941.314   118303473.192        2320.054          48.000                                                                  
C30  25831243.169   134510063.980       -2660.797          43.000                                                                  
C32  25225185.503   131354107.466       -2101.596          41.000                                                                  
> 2023  8  2 19 30 59.0000000  0 28                     
G 5  23657021.616   124318490.058        2444.787          41.000    23657020.812    96871552.688        1904.890          38.000  
G10  24368260.925   128056082.037       -2328.601          44.000    24368261.801    99783926.387       -1814.562          38.000  
G13  22485014.539   118159561.642        3173.163          41.000                                                                  
G15  20291760.225   106633919.027        1641.086          45.000    20291757.348    83091364.648        1278.745          42.000  
G18  20497452.711   107714844.651       -1174.027          46.000    20497449.226    83933646.790        -914.804          44.000  
G23  21639615.249   113716959.148       -1595.564          44.000    21639612.676    88610619.615       -1243.336          42.000  
G24  21903707.329   115104777.375       -2676.226          46.000    21903709.955    89692040.693       -2085.287          42.000  
G27  24703491.676   129817732.220       -1777.832          41.000    24703492.641   101156670.906       -1385.247          37.000  
G29  23496701.135   123475997.932        3389.400          41.000    23496705.745    96215055.154        2641.135          38.000  
R 2  23884969.094   127454795.625        3281.895          39.000    23884974.883    99131507.006        2552.502          38.000  
R 3  20272602.935   108520826.562        1944.266          49.000    20272603.060    84405084.696        1512.224          48.000  
R 4  20188653.032   108109322.986        -946.216          50.000    20188654.747    84085030.068        -735.927          48.000  
R 5  23616787.188   126245264.032       -2912.940          43.000    23616796.497    98190812.376       -2265.750          39.000  
R12  23882794.309   127577612.661        -496.158          42.000    23882801.313    99227027.974        -385.942          40.000  
R17  22683133.650   121382063.235        4363.250          45.000    22683147.088    94408250.918        3393.628          43.000  
R18  19527672.387   104240040.846        1865.761          49.000    19527674.138    81075581.779        1451.062          46.000  
R19  19943139.429   106682345.368       -1896.433          37.000    19943144.575    82975185.219       -1475.016          43.000  
E 3  24515484.413   128829765.239       -1700.511          45.000    24515485.807    98713701.524       -1303.059          43.000  
E 5  23417348.860   123058994.539         792.853          46.000    23417349.611    94291957.032         607.456          44.000  
E 9  26832042.634   141003355.624        2564.609          39.000    26832046.386   108041536.101        1965.062          40.000  
E15  25617090.899   134618722.535       -2360.178          45.000    25617094.329   103149419.439       -1808.599          41.000  
C14  25249882.173   131482761.914        2405.158          37.000    25249877.527   101670811.686        1859.819          41.000  
C24  25631766.656   133471334.557        -857.894          40.000                                                                  
C25  25511387.515   132844521.208       -2471.176          42.000                                                                  
C27  22506271.672   117196065.234        -450.724          46.000                                                                  
C28  22719030.391   118303936.929        2320.121          48.000                                                                  
C30  25831140.976   134509531.552       -2660.819          43.000                                                                  
C32  25225104.682   131353686.886       -2101.557          41.000                                                                  
> 2023  8  2 19 30 59.2000000  0 28                     
G 5  23657114.642   124318978.688        2444.994          41.000    23657113.802    96871933.430        1905.125          37.000  
G10  24368172.277   128055615.903       -2328.897          44.000    24368173.135    99783563.161       -1814.758          38.000  
G13  22485135.262   118160195.923        3173.270          41.000                                                                  
G15  20291822.552   106634246.887        1641.080          45.000    20291819.675    83091620.114        1278.639          42.000  
G18  20497407.949   107714609.455       -1174.245          46.000    20497404.393    83933463.518        -915.117          44.000  
G23  21639554.369   113716639.654       -1595.771          44.000    21639551.939    88610370.658       -1243.509          42.000  
G24  21903605.422   115104241.797       -2676.053          46.000    21903607.977    89691623.348       -2085.276          42.000  
G27  24703423.899   129817376.289       -1777.848          41.000    24703424.793   101156393.537       -1385.420          37.000  
G29  23496830.060   123476675.458        3389.321          41.000    23496834.974    96215583.085        2641.112          38.000  
R 2  23885092.140   127455451.671        3282.169          39.000    23885097.965    99132017.246        2552.496          38.000  
R 3  20272675.572   108521215.044        1944.199          49.000    20272675.608    84405386.837        1512.140          48.000  
R 4  20188617.633   108109133.357        -946.401          50.000    20188619.331    84084882.570        -736.100          48.000  
R 5  23616678.222   126244681.055       -2913.214          43.000    23616687.157    98190358.933       -2265.828          39.000  
R12  23882775.796   127577513.082        -496.041          42.000    23882782.497    99226950.487        -385.936          40.000  
R17  22683297.045   121382935.517        4363.301          45.000    22683309.857    94408929.348        3393.628          43.000  
R18  19527742.255   104240413.611        1865.683          49.000    19527743.970    81075871.708        1451.051          46.000  
R19  19943068.507   106681965.714       -1896.540          37.000    19943073.707    82974889.909       -1475.161          43.000  
E 3  24515419.674   128829424.717       -1700.718          45.000    24515421.014    98713440.600       -1303.299          43.000  
E 5  23417378.970   123059152.720         792.747          46.000    23417379.702    94292078.234         607.244          44.000  
E 9  26832140.217   141003868.208        2564.693          39.000    26832143.969   108041928.860        1965.101          40.000  
E15  25617001.035   134618250.086       -2360.446          45.000    25617004.430   103149057.444       -1808.728          41.000  
C14  25249974.466   131483242.543        2404.940          37.000    25249969.803   101671183.384        1859.998          41.000  
C24  25631733.705   133471162.606        -857.783          40.000                                                                  
C25  25511292.577   132844026.605       -2471.188          42.000                                                                  
C27  22506254.250   117195974.686        -451.054          46.000                                                                  
C28  22719119.450   118304400.567        2319.965          48.000                                                                  
C30  25831038.730   134508999.000       -2660.976          43.000                                                                  
C32  25225023.842   131353266.184       -2101.830          41.000                                                                  
> 2023  8  2 19 30 59.4000000  0 28                     
G 5  23657207.632   124319467.414        2445.357          41.000    23657206.203    96872314.274        1905.527          37.000  
G10  24368083.611   128055149.845       -2328.646          44.000    24368084.594    99783199.999       -1814.574          38.000  
G13  22485256.003   118160830.301        3173.671          41.000                                                                  
G15  20291884.879   106634574.838        1641.465          45.000    20291882.253    83091875.688        1279.109          42.000  
G18  20497363.187   107714374.364       -1173.787          46.000    20497359.613    83933280.338        -914.631          44.000  
G23  21639493.507   113716320.225       -1595.547          44.000    21639491.238    88610121.771       -1243.230          42.000  
G24  21903503.550   115103706.316       -2675.723          46.000    21903505.945    89691206.111       -2084.840          42.000  
G27  24703356.140   129817020.463       -1777.440          41.000    24703357.069   101156116.286       -1384.945          37.000  
G29  23496958.985   123477353.054        3389.601          41.000    23496963.953    96216111.089        2641.229          38.000  
R 2  23885214.936   127456107.825        3282.493          39.000    23885220.940    99132527.611        2553.267          38.000  
R 3  20272748.156   108521603.615        1944.568          49.000    20272748.228    84405689.090        1512.570          48.000  
R 4  20188582.324   108108943.808        -946.088          50.000    20188583.986    84084735.164        -735.793          48.000  
R 5  23616569.221   126244098.161       -2912.862          43.000    23616577.924    98189905.610       -2265.425          39.000  
R12  23882757.338   127577413.617        -495.477          41.000    23882763.914    99226873.158        -385.299          40.000  
R17  22683460.403   121383807.895        4363.591          46.000    22683472.626    94409607.897        3394.064          43.000  
R18  19527812.176   104240786.505        1866.192          49.000    19527813.749    81076161.752        1451.509          46.000  
R19  19942997.459   106681586.158       -1896.048          37.000    19943002.677    82974594.724       -1474.613          43.000  
E 3  24515354.916   128829084.274       -1700.768          45.000    24515356.221    98713179.723       -1303.187          43.000  
E 5  23417409.079   123059310.992         792.853          46.000    23417409.829    94292199.507         607.607          44.000  
E 9  26832237.764   141004380.868        2564.900          39.000    26832241.534   108042321.664        1965.375          40.000  
E15  25616911.154   134617777.725       -2360.351          45.000    25616914.531   103148695.512       -1808.448          41.000  
C14  25250066.813   131483723.357        2405.594          37.000    25250062.060   101671555.137        1860.160          41.000  
C24  25631700.701   133470990.804        -857.297          40.000                                                                  
C25  25511197.639   132843532.135       -2470.735          42.000                                                                  
C27  22506236.845   117195884.234        -450.634          46.000                                                                  
C28  22719208.527   118304864.325        2320.417          48.000                                                                  
C30  25830936.501   134508466.566       -2660.590          43.000                                                                  
C32  25224943.021   131352845.578       -2101.456          41.000                                                                  
> 2023  8  2 19 30 59.6000000  0 28                     
G 5  23657300.623   124319956.085        2445.094          41.000    23657299.122    96872695.072        1905.365          38.000  
G10  24367994.945   128054683.708       -2328.802          44.000    24367995.803    99782836.791       -1814.652          38.000  
G13  22485376.744   118161464.608        3173.482          41.000                                                                  
G15  20291947.260   106634902.751        1641.493          45.000    20291944.633    83092131.186        1279.014          43.000  
G18  20497318.443   107714139.218       -1173.748          46.000    20497314.940    83933097.107        -914.592          45.000  
G23  21639432.681   113716000.754       -1595.413          44.000    21639430.501    88609872.823       -1243.263          42.000  
G24  21903401.679   115103170.773       -2675.863          46.000    21903403.877    89690788.787       -2085.136          43.000  
G27  24703288.327   129816664.576       -1777.513          41.000    24703289.649   101155838.962       -1385.085          37.000  
G29  23497087.928   123478030.557        3389.360          41.000    23497093.003    96216639.004        2641.006          39.000  
R 2  23885337.768   127456763.922        3282.454          39.000    23885343.986    99133037.880        2552.899          39.000  
R 3  20272820.651   108521992.139        1944.596          49.000    20272820.865    84405991.264        1512.447          48.000  
R 4  20188546.926   108108754.212        -946.021          50.000    20188548.695    84084587.702        -735.743          48.000  
R 5  23616460.238   126243515.174       -2913.013          43.000    23616468.762    98189452.167       -2265.655          39.000  
R12  23882738.700   127577314.110        -495.616          41.000    23882745.383    99226795.776        -385.305          40.000  
R17  22683623.726   121384680.169        4363.245          46.000    22683635.448    94410286.341        3393.650          44.000  
R18  19527882.080   104241159.331        1866.113          49.000    19527883.652    81076451.730        1451.403          46.000  
R19  19942926.484   106681206.551       -1895.936          37.000    19942931.826    82974299.488       -1474.563          43.000  
E 3  24515290.141   128828743.751       -1700.763          45.000    24515291.446    98712918.819       -1303.142          43.000  
E 5  23417439.170   123059469.203         792.960          46.000    23417439.939    94292320.736         607.652          44.000  
E 9  26832335.346   141004893.475        2564.933          39.000    26832339.134   108042714.448        1965.380          40.000  
E15  25616821.237   134617305.311       -2360.173          45.000    25616824.632   103148333.510       -1808.487          41.000  
C14  25250159.107   131484204.064        2405.426          37.000    25250154.318   101671926.835        1859.964          41.000  
C24  25631667.679   133470818.925        -857.548          40.000                                                                  
C25  25511102.647   132843037.538       -2471.176          42.000                                                                  
C27  22506219.459   117195793.741        -450.512          46.000                                                                  
C28  22719297.569   118305327.990        2320.249          48.000                                                                  
C30  25830834.254   134507934.058       -2660.624          43.000                                                                  
C32  25224862.217   131352424.858       -2101.702          41.000                                                                  
> 2023  8  2 19 30 59.8000000  0 28                     
G 5  23657393.595   124320444.800        2445.334          41.000    23657391.951    96873075.882        1905.393          38.000  
G10  24367906.297   128054217.677       -2328.455          44.000    24367907.083    99782473.624       -1814.540          39.000  
G13  22485497.521   118162099.033        3173.739          41.000                                                                  
G15  20292009.641   106635230.752        1641.689          45.000    20292007.246    83092386.783        1279.259          43.000  
G18  20497273.699   107713904.181       -1173.485          46.000    20497270.214    83932913.958        -914.436          45.000  
G23  21639371.855   113715681.360       -1595.229          44.000    21639369.782    88609623.954       -1243.040          42.000  
G24  21903299.826   115102635.301       -2675.673          46.000    21903301.916    89690371.526       -2085.030          43.000  
G27  24703220.532   129816308.813       -1777.071          41.000    24703221.890   101155561.769       -1384.610          37.000  
G29  23497216.906   123478708.153        3389.573          41.000    23497221.803    96217166.980        2641.028          39.000  
R 2  23885460.510   127457420.019        3282.309          40.000    23885467.032    99133548.213        2552.921          39.000  
R 3  20272893.235   108522380.750        1944.735          49.000    20272893.378    84406293.514        1512.615          48.000  
R 4  20188511.545   108108564.717        -945.686          50.000    20188513.368    84084440.304        -735.648          48.000  
R 5  23616351.130   126242932.289       -2912.723          43.000    23616359.528    98188998.798       -2265.475          40.000  
R12  23882720.224   127577214.726        -495.186          42.000    23882726.925    99226718.467        -385.160          40.000  
R17  22683787.049   121385552.538        4363.462          46.000    22683798.360    94410964.832        3393.762          44.000  
R18  19527952.019   104241532.275        1866.454          49.000    19527953.520    81076741.791        1451.627          46.000  
R19  19942855.615   106680827.064       -1895.780          37.000    19942860.797    82974004.336       -1474.306          44.000  
E 3  24515225.366   128828403.338       -1700.422          45.000    24515226.688    98712657.987       -1302.942          43.000  
E 5  23417469.297   123059627.523         793.290          46.000    23417470.066    94292442.050         607.820          44.000  
E 9  26832432.929   141005406.170        2565.090          39.000    26832436.699   108043107.281        1965.319          40.000  
E15  25616731.374   134616833.003       -2359.792          44.000    25616734.787   103147971.611       -1808.197          41.000  
C14  25250251.454   131484684.844        2405.639          37.000    25250246.629   101672298.604        1860.070          41.000  
C24  25631634.747   133470647.151        -857.241          40.000                                                                  
C25  25511007.709   132842543.048       -2470.902          42.000                                                                  
C27  22506202.054   117195703.350        -450.227          46.000                                                                  
C28  22719386.628   118305791.741        2320.395          47.000                                                                  
C30  25830731.990   134507401.668       -2660.210          43.000                                                                  
C32  25224781.395   131352004.252       -2101.316          41.000                                                                  
> 2023  8  2 19 31  0.0000000  0 28                     
G 5  23657486.514   124320933.274        2444.787          41.000    23657484.817    96873456.520        1905.097          38.000  
G10  24367817.595   128053751.369       -2328.953          44.000    24367818.506    99782110.293       -1814.663          39.000  
G13  22485618.262   118162733.197        3173.348          41.000    22485614.706    92074848.0551       2472.742          31.000  
G15  20292071.932   106635558.539        1641.499          45.000    20292069.645    83092642.196        1279.131          43.000  
G18  20497228.972   107713668.914       -1173.714          46.000    20497225.542    83932730.625        -914.659          45.000  
G23  21639310.975   113715361.740       -1595.514          44.000    21639308.938    88609374.890       -1243.313          43.000  
G24  21903197.883   115102099.582       -2675.980          46.000    21903199.866    89689954.090       -2085.169          43.000  
G27  24703152.755   129815952.841       -1777.256          41.000    24703154.202   101155284.352       -1384.900          38.000  
G29  23497345.831   123479385.480        3389.266          41.000    23497350.531    96217694.781        2641.045          39.000  
R 2  23885583.449   127458075.916        3282.001          40.000    23885589.971    99134058.350        2552.681          39.000  
R 3  20272965.730   108522769.133        1944.439          49.000    20272965.980    84406595.583        1512.403          48.000  
R 4  20188476.147   108108374.986        -945.965          50.000    20188478.005    84084292.735        -735.804          48.000  
R 5  23616242.093   126242349.160       -2912.996          43.000    23616250.527    98188545.269       -2265.615          40.000  
R12  23882701.783   127577115.090        -495.527          42.000    23882708.180    99226640.973        -385.378          40.000  
R17  22683950.318   121386424.644        4363.133          47.000    22683961.201    94411643.157        3393.667          44.000  
R18  19528022.048   104241904.981        1866.197          49.000    19528023.334    81077031.685        1451.531          46.000  
R19  19942784.729   106680447.385       -1895.741          37.000    19942789.875    82973709.014       -1474.462          44.000  
E 3  24515160.537   128828062.687       -1700.539          45.000    24515161.859    98712396.955       -1303.204          43.000  
E 5  23417499.371   123059785.592         793.088          46.000    23417500.157    94292563.162         607.551          44.000  
E 9  26832530.422   141005918.604        2564.805          39.000    26832534.211   108043499.923        1965.207          40.000  
E15  25616641.475   134616360.434       -2360.044          44.000    25616644.852   103147609.535       -1808.421          41.000  
C14  25250343.801   131485165.333        2404.957          37.000    25250338.834   101672670.176        1859.763          41.000  
C24  25631601.760   133470475.125        -857.576          40.000                                                                  
C25  25510912.717   132842048.259       -2471.361          42.000                                                                  
C27  22506184.650   117195612.732        -450.489          46.000                                                                  
C28  22719475.580   118306255.263        2320.193          47.000                                                                  
C30  25830629.672   134506869.045       -2660.507          43.000                                                                  
C32  25224700.556   131351583.390       -2101.730          41.000                                                                  
> 2023  8  2 19 31  0.2000000  0 28                     
G 5  23657579.469   124321421.889        2444.988          41.000    23657577.843    96873837.257        1905.131          38.000  
G10  24367728.947   128053285.256       -2328.623          44.000    24367730.037    99781747.081       -1814.618          39.000  
G13  22485738.949   118163367.525        3173.622          41.000                                                                  
G15  20292134.277   106635886.478        1641.717          45.000    20292132.062    83092897.715        1279.170          43.000  
G18  20497184.228   107713433.815       -1173.468          46.000    20497180.869    83932547.435        -914.452          45.000  
G23  21639250.185   113715042.261       -1595.397          44.000    21639248.022    88609125.955       -1243.151          43.000  
G24  21903095.976   115101564.025       -2675.802          46.000    21903097.691    89689536.768       -2085.035          43.000  
G27  24703084.995   129815597.042       -1777.032          41.000    24703086.335   101155007.092       -1384.828          38.000  
G29  23497474.810   123480062.968        3389.472          42.000    23497479.259    96218222.702        2641.140          39.000  
R 2  23885706.388   127458731.968        3282.202          40.000    23885712.838    99134568.590        2552.932          39.000  
R 3  20273038.260   108523157.666        1944.702          49.000    20273038.635    84406897.766        1512.503          48.000  
R 4  20188440.837   108108185.441        -945.691          50.000    20188442.714    84084145.297        -735.609          48.000  
R 5  23616133.092   126241766.215       -2912.616          43.000    23616141.330    98188091.852       -2265.375          40.000  
R12  23882683.271   127577015.634        -495.253          42.000    23882689.507    99226563.637        -385.048          40.000  
R17  22684113.641   121387296.923        4363.407          47.000    22684124.112    94412321.587        3393.723          44.000  
R18  19528091.916   104242277.881        1866.544          49.000    19528093.149    81077321.716        1451.738          46.000  
R19  19942713.592   106680067.868       -1895.584          37.000    19942718.792    82973413.839       -1474.323          44.000  
E 3  24515095.726   128827722.185       -1700.611          45.000    24515097.066    98712136.069       -1302.902          43.000  
E 5  23417529.498   123059943.809         792.982          46.000    23417530.249    94292684.395         607.713          44.000  
E 9  26832627.987   141006431.179        2564.709          39.000    26832631.758   108043892.697        1965.453          40.000  
E15  25616551.611   134615888.037       -2360.156          44.000    25616554.953   103147247.567       -1808.348          41.000  
C14  25250436.148   131485646.023        2405.248          37.000    25250431.056   101673041.846        1859.769          41.000  
C24  25631568.792   133470303.261        -857.330          40.000                                                                  
C25  25510817.761   132841553.615       -2471.215          42.000                                                                  
C27  22506167.245   117195522.306        -450.137          46.000                                                                  
C28  22719564.586   118306718.948        2320.428          47.000                                                                  
C30  25830527.354   134506336.598       -2660.266          43.000                                                                  
C32  25224619.734   131351162.719       -2101.428          41.000                                                                  
> 2023  8  2 19 31  0.4000000  0 28                     
G 5  23657672.334   124321910.457        2445.055          41.000    23657670.958    96874217.957        1905.281          39.000  
G10  24367640.298   128052819.162       -2328.020          44.000    24367641.514    99781383.889       -1814.115          39.000  
G13  22485859.762   118164001.791        3173.660          41.000    22485855.920    92075836.5631       2472.982          31.000  
G15  20292196.658   106636214.347        1641.695          45.000    20292194.478    83093153.223        1279.276          43.000  
G18  20497139.502   107713198.689       -1173.329          46.000    20497136.143    83932364.220        -914.346          45.000  
G23  21639189.358   113714722.761       -1595.206          44.000    21639187.232    88608877.005       -1242.950          43.000  
G24  21902994.051   115101028.432       -2675.701          46.000    21902995.838    89689119.414       -2085.058          43.000  
G27  24703017.254   129815241.257       -1776.463          40.000    24703018.308   101154729.855       -1384.386          38.000  
G29  23497603.717   123480740.447        3389.640          42.000    23497608.310    96218750.620        2641.358          39.000  
R 2  23885829.434   127459387.931        3282.197          40.000    23885835.724    99135078.790        2552.737          39.000  
R 3  20273110.755   108523546.148        1944.725          48.000    20273111.219    84407199.930        1512.548          48.000  
R 4  20188405.475   108107995.886        -945.333          50.000    20188407.387    84083997.889        -735.307          48.000  
R 5  23616024.020   126241183.294       -2912.074          43.000    23616032.347    98187638.471       -2265.085          40.000  
R12  23882664.723   127576916.187        -494.828          42.000    23882670.905    99226486.282        -385.042          40.000  
R17  22684276.964   121388169.182        4363.675          47.000    22684286.971    94413000.008        3393.818          44.000  
R18  19528161.801   104242650.754        1866.717          49.000    19528163.016    81077611.724        1451.805          46.000  
R19  19942642.759   106679688.366       -1895.070          37.000    19942647.763    82973118.668       -1474.038          44.000  
E 3  24515030.862   128827381.677       -1700.354          45.000    24515032.255    98711875.147       -1302.746          43.000  
E 5  23417559.590   123060101.982         793.032          46.000    23417560.358    94292805.586         607.680          44.000  
E 9  26832725.498   141006943.707        2564.872          39.000    26832729.340   108044285.391        1965.291          40.000  
E15  25616461.730   134615415.638       -2359.826          44.000    25616465.072   103146885.599       -1808.018          41.000  
C14  25250528.513   131486126.607        2405.192          37.000    25250523.349   101673413.485        1859.959          42.000  
C24  25631535.841   133470131.374        -857.168          41.000                                                                  
C25  25510722.770   132841058.927       -2471.266          42.000                                                                  
C27  22506149.895   117195431.851        -449.903          46.000                                                                  
C28  22719653.591   118307182.598        2320.551          47.000                                                                  
C30  25830425.054   134505804.135       -2659.842          42.000                                                                  
C32  25224538.931   131350742.061       -2100.964          41.000                                                                  
> 2023  8  2 19 31  0.6000000  0 28                     
G 5  23657765.307   124322398.799        2444.155          41.000    23657763.895    96874598.490        1904.611          39.000  
G10  24367551.614   128052352.978       -2328.103          44.000    24367552.847    99781020.633       -1814.093          39.000  
G13  22485980.521   118164635.890        3172.962          41.000                                                                  
G15  20292259.021   106636542.075        1641.208          45.000    20292256.912    83093408.604        1278.863          43.000  
G18  20497094.758   107712963.452       -1173.507          46.000    20497091.417    83932180.905        -914.581          45.000  
G23  21639128.532   113714403.185       -1595.240          44.000    21639126.245    88608627.973       -1243.073          43.000  
G24  21902892.019   115100492.640       -2676.511          45.000    21902893.752    89688701.948       -2085.360          43.000  
G27  24702949.530   129814885.417       -1776.490          40.000    24702950.406   101154452.593       -1384.202          37.000  
G29  23497732.517   123481417.788        3389.383          41.000    23497737.199    96219278.434        2641.157          40.000  
R 2  23885952.533   127460043.682        3281.191          40.000    23885958.645    99135588.805        2552.072          39.000  
R 3  20273183.321   108523934.474        1944.283          49.000    20273183.785    84407501.978        1512.325          48.000  
R 4  20188370.040   108107806.218        -945.484          50.000    20188372.059    84083850.395        -735.251          48.000  
R 5  23615915.001   126240600.308       -2912.103          43.000    23615923.220    98187185.012       -2265.129          39.000  
R12  23882646.049   127576816.543        -495.555          42.000    23882652.214    99226408.793        -385.467          40.000  
R17  22684440.126   121389041.294        4363.273          46.000    22684449.865    94413678.295        3393.516          44.000  
R18  19528231.687   104243023.517        1866.488          49.000    19528232.884    81077901.643        1451.705          46.000  
R19  19942572.069   106679308.753       -1895.204          37.000    19942576.858    82972823.412       -1474.144          43.000  
E 3  24514965.890   128827041.044       -1700.360          45.000    24514967.480    98711614.153       -1302.913          43.000  
E 5  23417589.663   123060260.008         792.853          46.000    23417590.449    94292926.650         607.289          44.000  
E 9  26832822.938   141007456.026        2564.324          39.000    26832826.905   108044677.947        1964.665          40.000  
E15  25616371.849   134614943.142       -2359.647          44.000    25616375.137   103146523.541       -1808.219          41.000  
C14  25250620.825   131486607.035        2404.605          38.000    25250615.607   101673784.949        1859.126          42.000  
C24  25631502.891   133469959.248        -858.140          41.000                                                                  
C25  25510627.760   132840564.059       -2472.003          42.000                                                                  
C27  22506132.526   117195341.318        -449.930          46.000                                                                  
C28  22719742.615   118307646.138        2320.294          47.000                                                                  
C30  25830322.789   134505271.612       -2659.853          42.000                                                                  
C32  25224458.163   131350321.315       -2100.942          41.000                                                                  
> 2023  8  2 19 31  0.8000000  0 28                     
G 5  23657858.297   124322887.253        2443.111          41.000    23657857.028    96874979.113        1903.812          39.000  
G10  24367463.020   128051887.196       -2327.489          44.000    24367464.181    99780657.686       -1813.534          39.000  
G13  22486101.190   118165270.163        3172.281          41.000                                                                  
G15  20292321.491   106636870.047        1641.024          45.000    20292319.436    83093664.173        1278.661          43.000  
G18  20497050.050   107712728.511       -1173.351          46.000    20497046.601    83931997.832        -914.357          45.000  
G23  21639067.813   113714083.920       -1594.955          44.000    21639065.258    88608379.204       -1242.788          42.000  
G24  21902789.987   115099957.074       -2676.869          45.000    21902791.523    89688284.605       -2085.885          42.000  
G27  24702881.860   129814529.974       -1775.831          40.000    24702882.772   101154175.599       -1383.873          37.000  
G29  23497861.335   123482095.405        3389.372          41.000    23497865.927    96219806.452        2641.056          40.000  
R 2  23886075.705   127460699.624        3280.470          41.000    23886081.548    99136099.019        2551.725          39.000  
R 3  20273255.976   108524323.061        1944.121          49.000    20273256.369    84407804.205        1512.067          48.000  
R 4  20188334.535   108107616.941        -944.926          50.000    20188336.750    84083703.173        -734.961          48.000  
R 5  23615806.000   126240017.715       -2911.409          43.000    23615814.112    98186731.900       -2264.369          38.000  
R12  23882627.466   127576717.099        -496.298          42.000    23882633.630    99226331.436        -385.836          40.000  
R17  22684603.074   121389913.600        4362.568          46.000    22684612.759    94414356.741        3393.108          44.000  
R18  19528301.573   104243396.569        1866.588          49.000    19528302.824    81078191.795        1451.744          46.000  
R19  19942501.397   106678929.502       -1894.813          37.000    19942505.918    82972528.420       -1473.842          43.000  
E 3  24514900.989   128826700.765       -1700.092          45.000    24514902.723    98711353.427       -1302.550          43.000  
E 5  23417619.790   123060418.289         792.585          46.000    23417620.559    94293047.942         607.294          44.000  
E 9  26832920.467   141007968.527        2563.536          39.000    26832924.434   108045070.623        1964.118          40.000  
E15  25616281.986   134614470.998       -2359.356          44.000    25616285.274   103146161.768       -1807.845          41.000  
C14  25250713.118   131487087.574        2403.610          38.000    25250707.900   101674156.522        1858.556          42.000  
C24  25631469.887   133469787.323        -858.884          41.000                                                                  
C25  25510532.697   132840069.340       -2472.690          42.000                                                                  
C27  22506115.211   117195251.154        -449.400          46.000                                                                  
C28  22719831.692   118308109.956        2320.356          47.000                                                                  
C30  25830220.597   134504739.431       -2659.462          42.000                                                                  
C32  25224377.377   131349900.973       -2100.266          41.000                                                                  
> 2023  8  2 19 31  1.0000000  0 28                     
G 5  23657951.252   124323375.709        2442.032          41.000    23657950.090    96875359.735        1903.046          39.000  
G10  24367374.461   128051421.763       -2326.282          43.000    24367375.497    99780295.016       -1812.662          39.000  
G13  22486221.806   118165904.482        3171.604          41.000                                                                  
G15  20292383.943   106637198.127        1640.538          46.000    20292381.638    83093919.813        1278.399          43.000  
G18  20497005.324   107712493.791       -1173.088          46.000    20497001.804    83931814.942        -913.994          45.000  
G23  21639007.166   113713764.971       -1594.022          44.000    21639004.289    88608130.685       -1242.045          42.000  
G24  21902688.008   115099421.561       -2677.388          45.000    21902689.330    89687867.324       -2086.321          42.000  
G27  24702814.333   129814174.791       -1775.105          40.000    24702815.191   101153898.872       -1383.051          37.000  
G29  23497990.117   123482773.306        3389.969          41.000    23497994.995    96220334.705        2641.604          40.000  
R 2  23886198.626   127461355.566        3279.381          41.000    23886204.648    99136609.178        2550.775          39.000  
R 3  20273328.542   108524711.797        1944.026          49.000    20273328.989    84408106.546        1511.905          47.000  
R 4  20188299.207   108107427.979        -944.082          50.000    20188301.423    84083556.188        -734.324          47.000  
R 5  23615697.088   126239435.508       -2910.069          43.000    23615705.183    98186279.021       -2263.710          38.000  
R12  23882609.007   127576617.708        -497.036          42.000    23882615.154    99226254.157        -386.400          41.000  
R17  22684765.878   121390785.987        4362.171          45.000    22684775.867    94415035.306        3393.058          45.000  
R18  19528371.512   104243769.806        1866.622          49.000    19528372.763    81078482.092        1451.828          46.000  
R19  19942430.565   106678550.502       -1894.416          37.000    19942434.817    82972233.640       -1473.356          43.000  
E 3  24514836.232   128826360.777       -1699.422          45.000    24514838.037    98711092.908       -1302.053          43.000  
E 5  23417649.935   123060576.679         792.206          46.000    23417650.704    94293169.301         607.065          44.000  
E 9  26833018.068   141008481.073        2562.636          39.000    26833021.946   108045463.368        1963.537          40.000  
E15  25616192.176   134613999.121       -2358.798          44.000    25616195.464   103145800.207       -1807.258          41.000  
C14  25250805.465   131487568.127        2402.721          38.000    25250800.265   101674528.137        1857.997          42.000  
C24  25631436.829   133469615.343        -860.035          41.000                                                                  
C25  25510437.705   132839574.600       -2473.847          42.000                                                                  
C27  22506097.949   117195161.300        -448.534          46.000                                                                  
C28  22719920.840   118308573.987        2320.573          47.000                                                                  
C30  25830118.439   134504207.588       -2658.450          42.000                                                                  
C32  25224296.591   131349481.015       -2098.925          40.000                                                                  
> 2023  8  2 19 31  1.2000000  0 28                     
G 5  23658044.153   124323863.764        2440.395          42.000    23658043.170    96875740.035        1901.605          40.000  
G10  24367285.938   128050956.527       -2324.538          43.000    24367287.010    99779932.451       -1811.612          39.000  
G13  22486342.422   118166538.510        3170.772          40.000    22486338.956    92077813.2431       2470.736          31.000  
G15  20292446.306   106637526.034        1640.247          46.000    20292443.769    83094175.339        1278.293          43.000  
G18  20496960.633   107712259.061       -1172.474          46.000    20496957.220    83931632.043        -913.536          45.000  
G23  21638946.590   113713446.091       -1592.999          44.000    21638943.445    88607882.202       -1241.341          42.000  
G24  21902586.083   115098885.807       -2678.187          45.000    21902586.780    89687449.824       -2087.125          42.000  
G27  24702746.645   129813819.778       -1773.590          40.000    24702747.360   101153622.243       -1381.961          37.000  
G29  23498119.006   123483451.088        3390.321          41.000    23498124.027    96220862.876        2641.732          40.000  
R 2  23886321.600   127462011.142        3278.330          41.000    23886327.604    99137119.072        2549.708          40.000  
R 3  20273401.090   108525100.392        1943.875          48.000    20273401.627    84408408.784        1511.922          47.000  
R 4  20188263.916   108107239.103        -942.863          50.000    20188265.989    84083409.289        -733.295          47.000  
R 5  23615588.301   126238853.444       -2908.626          43.000    23615596.271    98185826.309       -2262.173          38.000  
R12  23882590.387   127576518.007        -498.025          42.000    23882596.463    99226176.577        -387.512          41.000  
R17  22684928.576   121391658.177        4361.607          44.000    22684938.868    94415713.678        3392.365          46.000  
R18  19528441.469   104244142.968        1866.829          49.000    19528442.702    81078772.341        1452.045          46.000  
R19  19942359.803   106678171.528       -1893.567          37.000    19942363.985    82971938.885       -1472.736          43.000  
E 3  24514771.582   128826020.842       -1698.432          45.000    24514773.351    98710832.411       -1301.461          44.000  
E 5  23417680.045   123060734.939         792.049          46.000    23417680.813    94293290.572         606.942          44.000  
E 9  26833115.579   141008993.298        2561.609          39.000    26833119.385   108045855.853        1962.754          40.000  
E15  25616102.402   134613527.344       -2357.675          44.000    25616105.636   103145438.695       -1806.442          41.000  
C14  25250897.723   131488048.313        2401.162          38.000    25250892.541   101674899.452        1856.885          43.000  
C24  25631403.611   133469442.991        -861.560          41.000                                                                  
C25  25510342.553   132839079.493       -2475.350          41.000                                                                  
C27  22506080.724   117195071.535        -447.405          46.000                                                                  
C28  22720009.935   118309037.946        2320.859          47.000                                                                  
C30  25830016.300   134503675.844       -2657.316          42.000                                                                  
C32  25224215.984   131349061.162       -2097.578          40.000                                                                  
> 2023  8  2 19 31  1.4000000  0 28                     
G 5  23658136.411   124324348.913        2438.808          42.000    23658135.785    96876118.085        1900.403          40.000  
G10  24367196.914   128050489.122       -2321.951          43.000    24367197.897    99779568.301       -1809.159          39.000  
G13  22486462.466   118167169.828        3170.179          41.000    22486459.286    92078305.177        2470.272          31.000  
G15  20292508.133   106637851.355        1640.526          46.000    20292505.542    83094428.798        1278.181          43.000  
G18  20496915.514   107712021.911       -1171.244          46.000    20496912.155    83931447.225        -912.804          46.000  
G23  21638885.514   113713124.907       -1591.228          44.000    21638882.279    88607631.935       -1239.832          42.000  
G24  21902483.622   115098347.268       -2679.199          46.000    21902483.908    89687030.195       -2087.617          43.000  
G27  24702678.654   129813462.550       -1771.227          39.000    24702679.762   101153343.856       -1380.330          37.000  
G29  23498247.627   123484126.501        3391.350          41.000    23498252.649    96221389.156        2642.638          40.000  
R 2  23886443.789   127462663.883        3277.123          41.000    23886450.061    99137626.765        2549.048          40.000  
R 3  20273473.156   108525486.369        1944.210          48.000    20273473.746    84408709.005        1512.230          47.000  
R 4  20188228.142   108107047.952        -940.595          49.000    20188230.108    84083260.588        -731.681          46.000  
R 5  23615478.925   126238269.159       -2906.257          42.000    23615486.823    98185371.907       -2260.150          37.000  
R12  23882571.178   127576415.443        -499.115          42.000    23882577.164    99226096.856        -387.859          41.000  
R17  22685090.773   121392527.593        4360.886          43.000    22685101.423    94416389.942        3392.164          46.000  
R18  19528510.766   104244513.590        1867.477          48.000    19528512.124    81079060.626        1452.722          46.000  
R19  19942288.702   106677790.174       -1891.779          36.000    19942292.652    82971642.304       -1471.350          43.000  
E 3  24514706.503   128825678.544       -1697.024          45.000    24514708.201    98710570.133       -1300.242          44.000  
E 5  23417709.654   123060890.627         792.323          46.000    23417710.458    94293409.843         607.177          44.000  
E 9  26833212.554   141009502.751        2560.720          39.000    26833216.307   108046246.192        1962.017          40.000  
E15  25616012.146   134613053.281       -2355.775          44.000    25616015.398   103145075.454       -1804.906          40.000  
C14  25250989.373   131488525.650        2399.671          38.000    25250984.263   101675268.550        1855.633          43.000  
C24  25631369.928   133469267.742        -863.181          41.000                                                                  
C25  25510246.918   132838581.479       -2476.893          41.000                                                                  
C27  22506063.069   117194979.521        -445.337          46.000                                                                  
C28  22720098.476   118309499.418        2321.485          46.000                                                                  
C30  25829913.785   134503141.861       -2655.137          41.000                                                                  
C32  25224135.001   131348639.210       -2094.734          40.000                                                                  
> 2023  8  2 19 31  1.6000000  0 28                     
G 5  23658229.187   124324836.284        2437.299          42.000    23658228.543    96876497.857        1899.101          40.000  
G10  24367108.534   128050024.655       -2320.191          42.000    24367109.517    99779206.403       -1807.740          38.000  
G13  22486583.100   118167803.624        3169.928          41.000    22486579.973    92078799.017        2470.076          31.000  
G15  20292570.532   106638179.318        1641.343          46.000    20292567.851    83094684.378        1279.092          42.000  
G18  20496870.859   107711787.657       -1169.221          45.000    20496867.643    83931264.696        -911.049          46.000  
G23  21638824.938   113712806.707       -1588.719          44.000    21638821.685    88607383.951       -1238.217          42.000  
G24  21902381.662   115097811.217       -2679.389          46.000    21902381.447    89686612.514       -2087.623          43.000  
G27  24702611.252   129813108.181       -1769.818          39.000    24702612.127   101153067.729       -1378.866          36.000  
G29  23498376.767   123484804.570        3391.998          42.000    23498381.663    96221917.476        2642.531          40.000  
R 2  23886566.549   127463319.021        3276.358          41.000    23886572.874    99138136.307        2548.143          39.000  
R 3  20273545.740   108525875.117        1945.518          48.000    20273546.348    84409011.376        1513.151          47.000  
R 4  20188192.976   108106859.791        -938.382          49.000    20188194.924    84083114.264        -729.747          46.000  
R 5  23615370.067   126237687.769       -2904.726          42.000    23615378.233    98184919.702       -2259.189          37.000  
R12  23882552.326   127576315.313        -499.796          42.000    23882558.384    99226018.968        -388.931          41.000  
R17  22685253.506   121393399.613        4361.261          43.000    22685264.406    94417068.091        3391.387          46.000  
R18  19528580.616   104244887.092        1869.326          48.000    19528582.063    81079351.079        1453.672          46.000  
R19  19942218.138   106677411.834       -1889.426          36.000    19942221.854    82971348.014       -1469.701          42.000  
E 3  24514641.924   128825339.096       -1695.342          45.000    24514643.604    98710310.048       -1298.918          44.000  
E 5  23417739.799   123061049.025         793.323          46.000    23417740.585    94293531.240         608.356          44.000  
E 9  26833309.994   141010014.545        2559.742          39.000    26833313.711   108046638.405        1961.665          40.000  
E15  25615922.461   134612582.137       -2353.551          43.000    25615925.713   103144714.444       -1803.347          40.000  
C14  25251081.381   131489005.298        2398.944          38.000    25251076.360   101675639.438        1854.862          43.000  
C24  25631336.709   133469094.736        -864.589          41.000                                                                  
C25  25510151.747   132838085.815       -2477.731          41.000                                                                  
C27  22506046.004   117194890.439        -443.175          46.000                                                                  
C28  22720187.553   118309963.658        2322.971          46.000                                                                  
C30  25829811.753   134502610.724       -2653.623          41.000                                                                  
C32  25224054.484   131348220.148       -2092.934          39.000                                                                  
> 2023  8  2 19 31  1.8000000  0 28                     
G 5  23658321.855   124325323.038        2435.969          42.000    23658321.194    96876877.132        1898.286          40.000  
G10  24367020.011   128049560.076       -2319.431          42.000    24367020.940    99778844.353       -1807.572          39.000  
G13  22486703.591   118168436.943        3169.313          41.000    22486700.642    92079292.562        2469.596          31.000  
G15  20292632.912   106638506.864        1640.454          46.000    20292630.125    83094939.584        1278.203          43.000  
G18  20496826.312   107711553.068       -1169.931          46.000    20496823.078    83931081.904        -911.580          46.000  
G23  21638764.415   113712488.260       -1588.825          44.000    21638761.306    88607135.822       -1238.144          42.000  
G24  21902279.522   115097274.604       -2680.440          45.000    21902279.379    89686194.371       -2088.707          43.000  
G27  24702543.850   129812753.617       -1769.656          39.000    24702544.654   101152791.459       -1378.519          37.000  
G29  23498505.799   123485482.298        3391.506          42.000    23498510.499    96222445.544        2642.509          40.000  
R 2  23886689.345   127463973.482        3274.742          42.000    23886695.688    99138645.374        2547.166          39.000  
R 3  20273618.271   108526263.435        1944.529          48.000    20273618.985    84409313.368        1512.286          47.000  
R 4  20188157.828   108106671.435        -938.326          49.000    20188159.704    84082967.749        -729.965          46.000  
R 5  23615261.459   126237106.204       -2904.357          43.000    23615269.464    98184467.463       -2258.535          38.000  
R12  23882533.492   127576214.598        -501.177          42.000    23882539.514    99225940.636        -389.619          41.000  
R17  22685416.615   121394270.978        4359.478          46.000    22685427.104    94417745.868        3391.041          45.000  
R18  19528650.609   104245260.102        1868.209          49.000    19528652.002    81079641.224        1453.107          46.000  
R19  19942147.216   106677033.207       -1889.689          37.000    19942151.200    82971053.510       -1470.037          43.000  
E 3  24514577.221   128824999.419       -1694.588          45.000    24514578.990    98710049.776       -1298.901          44.000  
E 5  23417769.872   123061207.022         793.429          46.000    23417770.659    94293652.302         607.540          44.000  
E 9  26833407.255   141010525.876        2559.133          39.000    26833411.061   108047030.179        1960.860          40.000  
E15  25615832.759   134612110.771       -2352.835          43.000    25615836.029   103144353.269       -1803.425          40.000  
C14  25251173.281   131489484.331        2397.737          38.000    25251168.367   101676009.874        1854.080          43.000  
C24  25631303.348   133468921.107        -865.980          41.000                                                                  
C25  25510056.380   132837589.415       -2479.765          41.000                                                                  
C27  22506028.886   117194801.161        -443.113          46.000                                                                  
C28  22720276.666   118310427.491        2322.105          46.000                                                                  
C30  25829709.775   134502079.416       -2653.399          41.000                                                                  
C32  25223973.948   131347800.960       -2092.543          39.000                                                                  
> 2023  8  2 19 31  2.0000000  0 28                     
G 5  23658414.917   124325812.056        2435.360          42.000    23658414.256    96877258.168        1897.754          40.000  
G10  24366932.078   128049097.933       -2319.956          42.000    24366932.971    99778484.261       -1807.622          39.000  
G13  22486824.493   118169072.410        3167.380          40.000    22486821.687    92079787.662        2468.093          31.000  
G15  20292695.686   106638836.547        1638.387          46.000    20292692.827    83095196.509        1276.661          43.000  
G18  20496782.158   107711320.701       -1171.943          46.000    20496778.745    83930900.832        -913.262          46.000  
G23  21638704.304   113712172.085       -1590.731          44.000    21638701.052    88606889.482       -1239.189          42.000  
G24  21902177.812   115096740.232       -2681.736          45.000    21902177.633    89685777.991       -2089.662          43.000  
G27  24702476.877   129812401.568       -1769.410          40.000    24702477.663   101152517.099       -1379.000          37.000  
G29  23498635.278   123486162.389        3390.668          42.000    23498639.817    96222975.475        2642.470          40.000  
R 2  23886812.534   127464630.368        3274.832          41.000    23886818.842    99139156.270        2547.076          39.000  
R 3  20273691.248   108526654.039        1942.819          48.000    20273691.980    84409617.162        1511.084          48.000  
R 4  20188123.055   108106485.415        -940.109          50.000    20188124.913    84082823.085        -731.100          47.000  
R 5  23615153.244   126236527.187       -2904.396          43.000    23615161.196    98184017.087       -2259.055          40.000  
R12  23882514.873   127576116.338        -501.076          41.000    23882521.074    99225864.156        -389.921          41.000  
R17  22685580.027   121395144.787        4359.361          47.000    22685590.194    94418425.475        3390.532          45.000  
R18  19528720.959   104245635.450        1866.600          49.000    19528722.317    81079933.151        1451.816          46.000  
R19  19942076.972   106676656.898       -1891.628          37.000    19942080.814    82970760.827       -1471.322          43.000  
E 3  24514513.053   128824662.031       -1695.962          45.000    24514514.768    98709791.260       -1300.047          44.000  
E 5  23417800.375   123061367.181         791.434          46.000    23417801.125    94293775.004         605.741          44.000  
E 9  26833504.981   141011039.428        2558.239          39.000    26833508.787   108047423.675        1960.044          40.000  
E15  25615743.556   134611641.738       -2354.104          44.000    25615746.737   103143993.884       -1804.269          40.000  
C14  25251265.700   131489965.628        2396.899          38.000    25251260.822   101676382.023        1853.298          43.000  
C24  25631270.379   133468749.769        -866.170          41.000                                                                  
C25  25509961.496   132837095.346       -2479.989          42.000                                                                  
C27  22506012.196   117194714.155        -444.661          46.000                                                                  
C28  22720366.190   118310893.595        2320.825          47.000                                                                  
C30  25829608.225   134501550.551       -2653.421          42.000                                                                  
C32  25223893.841   131347384.192       -2093.141          39.000                                                                  
> 2023  8  2 19 31  2.2000000  0 28                     
G 5  23658507.389   124326298.816        2435.483          42.000    23658507.104    96877637.460        1897.805          40.000  
G10  24366843.644   128048633.735       -2318.844          42.000    24366844.662    99778122.551       -1806.963          39.000  
G13  22486944.930   118169705.740        3168.687          40.000    22486942.071    92080281.150        2469.110          32.000  
G15  20292758.013   106639164.116        1639.789          46.000    20292754.976    83095451.739        1277.723          43.000  
G18  20496737.556   107711086.236       -1170.289          46.000    20496734.161    83930718.125        -911.904          46.000  
G23  21638643.728   113711853.847       -1589.160          44.000    21638640.404    88606641.474       -1238.407          42.000  
G24  21902075.637   115096203.644       -2681.043          45.000    21902075.601    89685359.869       -2089.171          43.000  
G27  24702409.421   129812047.413       -1768.578          40.000    24702410.207   101152241.138       -1378.167          37.000  
G29  23498764.292   123486840.293        3391.551          42.000    23498768.635    96223503.731        2642.738          39.000  
R 2  23886935.115   127465284.955        3274.771          41.000    23886941.369    99139665.399        2547.065          39.000  
R 3  20273763.724   108527042.398        1943.898          49.000    20273764.511    84409919.243        1511.928          48.000  
R 4  20188087.906   108106297.281        -938.421          50.000    20188089.711    84082676.744        -730.049          47.000  
R 5  23615044.493   126235946.043       -2903.502          43.000    23615052.517    98183565.069       -2258.412          40.000  
R12  23882496.110   127576015.727        -501.048          42.000    23882502.329    99225785.959        -389.574          41.000  
R17  22685743.117   121396016.334        4359.808          47.000    22685752.856    94419103.336        3390.644          44.000  
R18  19528790.952   104246008.624        1867.985          50.000    19528792.274    81080223.409        1452.984          46.000  
R19  19942006.086   106676278.423       -1890.242          37.000    19942010.071    82970466.472       -1470.154          43.000  
E 3  24514448.385   128824322.488       -1696.449          45.000    24514450.136    98709531.111       -1299.164          44.000  
E 5  23417830.395   123061525.136         790.814          46.000    23417831.145    94293896.068         606.836          44.000  
E 9  26833602.278   141011550.770        2558.138          39.000    26833606.102   108047815.496        1960.653          40.000  
E15  25615653.890   134611170.594       -2354.367          44.000    25615657.052   103143632.899       -1803.257          40.000  
C14  25251357.618   131490444.718        2397.469          38.000    25251352.883   101676752.484        1853.812          43.000  
C24  25631237.107   133468576.202        -865.863          41.000                                                                  
C25  25509866.254   132836599.010       -2479.732          42.000                                                                  
C27  22505995.042   117194625.070        -443.432          46.000                                                                  
C28  22720455.249   118311357.556        2321.819          47.000                                                                  
C30  25829506.282   134501019.580       -2652.678          42.000                                                                  
C32  25223813.270   131346965.351       -2092.258          39.000                                                                  
> 2023  8  2 19 31  2.4000000  0 28                     
G 5  23658599.933   124326785.298        2434.829          42.000    23658599.343    96878016.550        1897.201          40.000  
G10  24366755.317   128048169.444       -2318.453          42.000    24366756.514    99777760.796       -1806.292          39.000  
G13  22487065.367   118170338.826        3168.397          40.000    22487062.454    92080774.545        2468.881          31.000  
G15  20292820.305   106639491.507        1639.979          46.000    20292817.088    83095706.851        1277.896          43.000  
G18  20496692.973   107710851.656       -1169.696          46.000    20496689.685    83930535.342        -911.423          46.000  
G23  21638583.152   113711535.510       -1588.456          44.000    21638579.971    88606393.446       -1237.669          42.000  
G24  21901973.426   115095666.837       -2681.250          45.000    21901973.622    89684941.573       -2089.355          43.000  
G27  24702342.019   129811693.219       -1767.980          40.000    24702342.716   101151965.152       -1377.413          38.000  
G29  23498893.307   123487518.037        3391.517          42.000    23498896.970    96224031.849        2642.727          39.000  
R 2  23887057.768   127465939.329        3274.178          40.000    23887064.022    99140174.315        2546.551          39.000  
R 3  20273836.291   108527430.644        1944.311          48.000    20273837.095    84410221.212        1512.151          48.000  
R 4  20188052.651   108106109.051        -937.812          50.000    20188054.527    84082530.364        -729.300          47.000  
R 5  23614935.868   126235364.886       -2902.776          43.000    23614943.658    98183113.012       -2257.809          40.000  
R12  23882477.169   127575914.952        -501.132          42.000    23882483.620    99225707.553        -389.949          41.000  
R17  22685906.208   121396887.634        4359.154          48.000    22685915.607    94419781.036        3390.493          45.000  
R18  19528860.891   104246381.681        1868.388          50.000    19528862.178    81080513.547        1453.174          46.000  
R19  19941935.521   106675899.916       -1889.242          37.000    19941939.363    82970172.091       -1469.433          43.000  
E 3  24514383.717   128823982.897       -1695.404          45.000    24514385.522    98709270.893       -1298.667          44.000  
E 5  23417860.397   123061682.995         791.831          46.000    23417861.201    94294017.027         607.216          44.000  
E 9  26833699.539   141012061.872        2558.172          39.000    26833703.399   108048207.099        1960.050          40.000  
E15  25615564.134   134610699.395       -2353.338          44.000    25615567.386   103143271.877       -1802.626          41.000  
C14  25251449.572   131490923.489        2396.435          38.000    25251444.873   101677122.715        1853.035          43.000  
C24  25631203.817   133468402.337        -866.958          41.000                                                                  
C25  25509770.887   132836102.380       -2480.899          42.000                                                                  
C27  22505977.887   117194535.973        -442.259          46.000                                                                  
C28  22720544.255   118311821.381        2322.054          47.000                                                                  
C30  25829404.304   134500488.525       -2652.332          42.000                                                                  
C32  25223732.770   131346546.460       -2091.219          39.000                                                                  
> 2023  8  2 19 31  2.6000000  0 28                     
G 5  23658692.530   124327271.653        2433.751          42.000    23658692.030    96878395.538        1896.620          40.000  
G10  24366667.008   128047705.326       -2317.934          42.000    24366668.331    99777399.097       -1806.326          39.000  
G13  22487185.786   118170971.860        3167.357          40.000                                                                  
G15  20292882.614   106639818.891        1639.130          46.000    20292879.326    83095961.958        1277.164          42.000  
G18  20496648.390   107710617.158       -1170.054          46.000    20496644.995    83930352.622        -911.809          45.000  
G23  21638522.647   113711217.292       -1588.612          44.000    21638519.395    88606145.476       -1237.848          42.000  
G24  21901871.251   115095129.974       -2682.199          45.000    21901871.537    89684523.247       -2089.885          42.000  
G27  24702274.653   129811339.139       -1767.634          40.000    24702275.261   101151689.196       -1377.921          37.000  
G29  23499022.303   123488195.824        3391.350          42.000    23499025.359    96224559.975        2642.498          38.000  
R 2  23887180.225   127466593.597        3273.525          40.000    23887186.586    99140683.225        2546.009          39.000  
R 3  20273908.767   108527818.920        1943.629          48.000    20273909.696    84410523.192        1511.676          47.000  
R 4  20188017.574   108105920.983        -937.868          50.000    20188019.432    84082384.091        -729.401          47.000  
R 5  23614827.331   126234783.837       -2902.686          43.000    23614834.961    98182661.099       -2257.351          40.000  
R12  23882458.478   127575814.103        -502.059          42.000    23882464.661    99225629.124        -390.480          41.000  
R17  22686069.334   121397758.906        4358.718          48.000    22686078.430    94420458.667        3389.901          44.000  
R18  19528930.777   104246754.802        1868.002          49.000    19528932.117    81080803.735        1452.750          46.000  
R19  19941864.742   106675521.519       -1889.421          37.000    19941868.691    82969877.757       -1469.802          43.000  
E 3  24514319.138   128823643.407       -1694.454          45.000    24514320.907    98709010.761       -1298.650          43.000  
E 5  23417890.452   123061840.892         792.390          46.000    23417891.257    94294137.977         606.518          44.000  
E 9  26833796.854   141012572.941        2557.697          39.000    26833800.606   108048598.712        1959.681          40.000  
E15  25615474.502   134610228.355       -2352.249          44.000    25615477.737   103142910.903       -1802.788          40.000  
C14  25251541.472   131491402.209        2395.709          38.000    25251536.791   101677492.899        1852.476          43.000  
C24  25631170.438   133468228.400        -867.635          41.000                                                                  
C25  25509675.466   132835605.680       -2481.419          42.000                                                                  
C27  22505960.840   117194446.960        -442.521          46.000                                                                  
C28  22720633.332   118312285.261        2321.780          47.000                                                                  
C30  25829302.325   134499957.645       -2651.778          42.000                                                                  
C32  25223652.466   131346127.680       -2091.241          40.000                                                                  
> 2023  8  2 19 31  2.8000000  0 28                     
G 5  23658785.128   124327758.129        2433.511          42.000    23658784.627    96878774.582        1896.223          39.000  
G10  24366578.807   128047241.495       -2317.525          42.000    24366580.219    99777037.677       -1805.968          39.000  
G13  22487306.313   118171605.035        3167.167          40.000    22487303.436    92081760.1631       2467.925          31.000  
G15  20292944.977   106640146.479        1639.208          46.000    20292941.493    83096217.237        1277.315          42.000  
G18  20496603.825   107710382.892       -1169.970          46.000    20496600.269    83930170.079        -911.602          45.000  
G23  21638462.107   113710899.353       -1588.339          44.000    21638458.783    88605897.692       -1237.798          42.000  
G24  21901769.112   115094593.287       -2682.323          45.000    21901769.165    89684105.035       -2090.126          42.000  
G27  24702207.340   129810985.336       -1767.550          40.000    24702208.305   101151413.553       -1377.027          37.000  
G29  23499151.389   123488873.881        3391.830          42.000    23499154.123    96225088.377        2643.129          38.000  
R 2  23887303.038   127467247.924        3272.899          41.000    23887309.275    99141192.204        2545.852          39.000  
R 3  20273981.351   108528207.375        1943.590          48.000    20273982.263    84410825.329        1511.771          47.000  
R 4  20187982.479   108105733.159        -937.600          50.000    20187984.248    84082237.999        -729.211          47.000  
R 5  23614718.616   126234203.026       -2902.681          43.000    23614726.192    98182209.397       -2257.317          39.000  
R12  23882439.644   127575713.439        -502.204          42.000    23882445.756    99225550.818        -390.519          41.000  
R17  22686232.389   121398630.328        4358.422          48.000    22686241.199    94421136.500        3390.230          44.000  
R18  19529000.681   104247128.125        1868.069          49.000    19529002.074    81081094.114        1453.079          46.000  
R19  19941793.963   106675143.355       -1889.365          37.000    19941798.019    82969583.660       -1469.333          43.000  
E 3  24514254.631   128823304.132       -1694.582          46.000    24514256.364    98708750.806       -1298.650          43.000  
E 5  23417920.544   123061998.918         791.775          46.000    23417921.312    94294259.077         606.428          44.000  
E 9  26833894.115   141013084.096        2556.892          39.000    26833897.885   108048990.366        1959.089          40.000  
E15  25615384.925   134609757.502       -2352.450          44.000    25615388.124   103142550.130       -1802.816          40.000  
C14  25251633.409   131491881.035        2395.072          38.000    25251628.691   101677863.156        1852.158          43.000  
C24  25631137.023   133468054.588        -867.875          41.000                                                                  
C25  25509580.189   132835109.100       -2481.760          42.000                                                                  
C27  22505943.775   117194358.229        -442.259          46.000                                                                  
C28  22720722.445   118312749.338        2321.635          47.000                                                                  
C30  25829200.454   134499427.002       -2651.667          42.000                                                                  
C32  25223572.163   131345709.243       -2090.666          40.000                                                                  
> 2023  8  2 19 31  3.0000000  0 28                     
G 5  23658877.689   124328244.763        2432.851          42.000    23658877.153    96879153.780        1895.614          39.000  
G10  24366490.570   128046778.011       -2317.279          42.000    24366492.035    99776676.505       -1805.851          38.000  
G13  22487426.893   118172238.448        3166.866          40.000    22487423.766    92082253.715        2467.690          31.000  
G15  20293007.358   106640474.306        1639.012          46.000    20293003.873    83096472.676        1277.276          42.000  
G18  20496559.259   107710148.923       -1169.775          46.000    20496555.703    83929987.758        -911.608          45.000  
G23  21638401.674   113710581.705       -1588.149          44.000    21638398.404    88605650.199       -1237.424          41.000  
G24  21901666.972   115094056.814       -2682.524          45.000    21901666.865    89683687.002       -2090.456          42.000  
G27  24702140.153   129810631.893       -1767.147          40.000    24702141.386   101151138.134       -1376.921          37.000  
G29  23499280.528   123489552.196        3391.428          42.000    23499282.959    96225616.909        2642.766          37.000  
R 2  23887425.691   127467902.501        3272.508          41.000    23887431.874    99141701.247        2545.204          39.000  
R 3  20274053.953   108528596.054        1943.355          48.000    20274054.918    84411127.649        1511.615          47.000  
R 4  20187947.402   108105545.695        -937.382          50.000    20187949.225    84082092.210        -728.797          47.000  
R 5  23614609.954   126233622.640       -2901.720          43.000    23614617.602    98181757.923       -2257.435          39.000  
R12  23882420.810   127575612.933        -502.808          42.000    23882426.832    99225472.668        -390.882          40.000  
R17  22686395.569   121399502.010        4358.350          48.000    22686404.039    94421814.442        3389.582          44.000  
R18  19529070.656   104247501.755        1868.181          49.000    19529072.103    81081384.715        1453.063          46.000  
R19  19941723.452   106674765.579       -1888.784          37.000    19941727.454    82969289.795       -1469.260          43.000  
E 3  24514190.178   128822965.186       -1694.845          46.000    24514191.857    98708491.098       -1298.466          43.000  
E 5  23417950.635   123062157.217         791.143          46.000    23417951.439    94294380.378         606.439          44.000  
E 9  26833991.394   141013595.453        2556.356          39.000    26833995.253   108049382.197        1958.915          40.000  
E15  25615295.401   134609286.993       -2352.718          44.000    25615298.564   103142189.615       -1802.536          40.000  
C14  25251725.255   131492360.021        2394.597          38.000    25251720.681   101678233.551        1851.772          43.000  
C24  25631103.661   133467880.939        -868.478          41.000                                                                  
C25  25509484.893   132834612.662       -2482.559          42.000                                                                  
C27  22505926.782   117194269.853        -441.772          46.000                                                                  
C28  22720811.700   118313213.730        2321.886          47.000                                                                  
C30  25829098.583   134498896.683       -2651.527          42.000                                                                  
C32  25223491.824   131345291.100       -2090.576          40.000                                                                  
> 2023  8  2 19 31  3.2000000  0 28                     
G 5  23658969.804   124328729.023        2432.304          42.000    23658969.375    96879531.124        1895.385          39.000  
G10  24366401.957   128046312.375       -2316.547          42.000    24366403.315    99776313.693       -1805.124          38.000  
G13  22487546.919   118172869.518        3166.815          40.000    22487543.614    92082745.442        2467.652          31.000  
G15  20293069.328   106640799.877        1639.180          46.000    20293065.664    83096726.368        1277.242          42.000  
G18  20496514.283   107709912.756       -1169.378          46.000    20496510.620    83929803.741        -911.167          44.000  
G23  21638340.812   113710261.889       -1587.478          44.000    21638337.631    88605400.978       -1237.116          41.000  
G24  21901564.458   115093518.031       -2682.725          45.000    21901563.886    89683267.199       -2090.293          41.000  
G27  24702072.465   129810276.259       -1766.572          40.000    24702073.644   101150861.050       -1376.463          37.000  
G29  23499409.293   123490228.281        3391.853          43.000    23499411.097    96226143.735        2643.113          37.000  
R 2  23887547.933   127468554.667        3272.072          41.000    23887554.188    99142208.490        2544.941          39.000  
R 3  20274126.090   108528982.482        1943.663          48.000    20274127.073    84411428.202        1511.749          47.000  
R 4  20187911.968   108105356.033        -936.516          50.000    20187913.755    84081944.695        -728.462          47.000  
R 5  23614500.882   126233040.036       -2901.211          43.000    23614508.673    98181304.858       -2256.161          39.000  
R12  23882401.565   127575510.127        -502.573          41.000    23882407.498    99225392.717        -390.988          40.000  
R17  22686558.249   121400371.343        4358.053          48.000    22686566.397    94422490.639        3389.833          44.000  
R18  19529140.220   104247873.129        1868.410          49.000    19529141.596    81081673.585        1453.420          46.000  
R19  19941652.261   106674385.554       -1888.236          37.000    19941656.496    82968994.234       -1468.679          43.000  
E 3  24514125.295   128822624.053       -1694.459          46.000    24514126.921    98708229.690       -1298.231          43.000  
E 5  23417980.280   123062313.253         791.233          46.000    23417981.138    94294499.927         606.473          44.000  
E 9  26834088.262   141014104.515        2556.323          39.000    26834092.121   108049772.242        1958.803          40.000  
E15  25615205.431   134608814.317       -2352.177          44.000    25615208.611   103141827.422       -1802.117          40.000  
C14  25251816.780   131492836.703        2394.608          38.000    25251812.152   101678602.107        1851.135          42.000  
C24  25631069.871   133467704.961        -869.076          41.000                                                                  
C25  25509389.097   132834113.912       -2482.793          42.000                                                                  
C27  22505909.413   117194179.314        -441.252          46.000                                                                  
C28  22720900.492   118313675.888        2322.144          47.000                                                                  
C30  25828996.300   134498364.197       -2650.996          42.000                                                                  
C32  25223411.056   131344870.848       -2089.811          40.000                                                                  
> 2023  8  2 19 31  3.4000000  0 28                     
G 5  23659062.723   124329217.336        2431.773          42.000    23659062.312    96879911.616        1894.798          39.000  
G10  24366314.131   128045851.012       -2315.966          42.000    24366315.453    99775954.191       -1804.583          38.000  
G13  22487667.857   118173504.700        3166.329          40.000    22487664.390    92083240.451        2467.271          31.000  
G15  20293132.101   106641129.580        1639.079          46.000    20293128.385    83096983.279        1277.293          42.000  
G18  20496470.164   107709680.782       -1169.227          46.000    20496466.430    83929622.989        -910.921          44.000  
G23  21638280.736   113709946.297       -1587.076          44.000    21638277.520    88605155.095       -1236.619          41.000  
G24  21901462.694   115092983.351       -2683.010          45.000    21901462.229    89682850.533       -2090.791          41.000  
G27  24702005.653   129809924.944       -1765.806          40.000    24702006.707   101150587.271       -1375.954          37.000  
G29  23499538.879   123490908.528        3391.886          43.000    23499539.772    96226673.850        2643.481          37.000  
R 2  23887670.908   127469211.035        3272.043          41.000    23887677.109    99142718.953        2544.824          39.000  
R 3  20274199.032   108529373.146        1943.680          48.000    20274200.068    84411732.035        1511.749          47.000  
R 4  20187877.302   108105170.709        -935.901          50.000    20187879.107    84081800.538        -727.965          47.000  
R 5  23614392.596   126232461.780       -2900.642          43.000    23614400.619    98180855.074       -2256.071          39.000  
R12  23882383.196   127575411.494        -503.021          41.000    23882388.950    99225315.963        -391.217          40.000  
R17  22686721.732   121401244.841        4357.623          48.000    22686729.541    94423170.024        3389.493          44.000  
R18  19529210.588   104248248.780        1868.701          49.000    19529211.910    81081965.737        1453.381          46.000  
R19  19941581.858   106674009.795       -1888.387          37.000    19941586.343    82968702.007       -1468.400          43.000  
E 3  24514061.181   128822287.129       -1693.861          46.000    24514062.843    98707971.543       -1297.946          43.000  
E 5  23418010.747   123062473.471         791.641          46.000    23418011.604    94294622.701         606.562          44.000  
E 9  26834185.952   141014617.635        2556.065          40.000    26834189.740   108050165.421        1958.563          40.000  
E15  25615116.300   134608345.877       -2351.327          44.000    25615119.463   103141468.498       -1801.743          40.000  
C14  25251909.038   131493317.346        2393.614          38.000    25251904.446   101678973.857        1851.370          42.000  
C24  25631036.867   133467533.024        -869.210          41.000                                                                  
C25  25509294.106   132833619.167       -2483.386          42.000                                                                  
C27  22505892.813   117194093.003        -440.660          46.000                                                                  
C28  22720990.069   118314142.184        2322.261          47.000                                                                  
C30  25828894.840   134497835.974       -2650.102          42.000                                                                  
C32  25223331.181   131344454.830       -2089.090          40.000                                                                  
> 2023  8  2 19 31  3.6000000  0 28                     
G 5  23659155.302   124329703.551        2431.169          42.000    23659154.588    96880290.502        1894.542          39.000  
G10  24366225.930   128045387.739       -2315.709          42.000    24366227.520    99775593.199       -1804.459          38.000  
G13  22487788.312   118174137.857        3166.178          39.000                                                                  
G15  20293194.429   106641457.261        1638.928          46.000    20293190.765    83097238.620        1277.103          42.000  
G18  20496425.635   107709446.868       -1169.070          46.000    20496421.864    83929440.705        -910.943          45.000  
G23  21638220.286   113709628.799       -1586.774          44.000    21638216.944    88604907.668       -1236.591          42.000  
G24  21901360.590   115092446.591       -2683.524          45.000    21901359.822    89682432.269       -2091.020          42.000  
G27  24701938.447   129809571.727       -1765.370          40.000    24701939.537   101150312.019       -1375.736          37.000  
G29  23499668.072   123491586.799        3391.813          43.000    23499668.376    96227202.364        2643.208          37.000  
R 2  23887793.561   127469865.219        3271.222          41.000    23887799.601    99143227.783        2544.332          39.000  
R 3  20274271.687   108529761.754        1943.618          48.000    20274272.741    84412034.283        1511.643          48.000  
R 4  20187842.225   108104983.413        -935.733          50.000    20187844.083    84081654.844        -727.825          47.000  
R 5  23614284.113   126231881.546       -2900.328          44.000    23614292.208    98180403.792       -2255.741          39.000  
R12  23882364.344   127575310.755        -503.769          42.000    23882370.045    99225237.650        -391.144          40.000  
R17  22686884.716   121402116.296        4357.679          48.000    22686892.328    94423847.801        3389.197          45.000  
R18  19529280.438   104248622.372        1868.488          49.000    19529281.921    81082256.308        1453.325          46.000  
R19  19941511.346   106673632.145       -1887.672          37.000    19941515.832    82968408.239       -1468.238          44.000  
E 3  24513996.674   128821948.276       -1693.459          46.000    24513998.336    98707711.903       -1297.756          43.000  
E 5  23418040.838   123062631.661         791.669          46.000    23418041.714    94294743.907         606.423          44.000  
E 9  26834283.177   141015128.684        2555.657          40.000    26834286.947   108050557.015        1958.172          40.000  
E15  25615026.812   134607875.514       -2350.880          44.000    25615029.939   103141108.081       -1801.547          40.000  
C14  25252000.939   131493795.998        2393.166          38.000    25251996.418   101679343.924        1850.543          43.000  
C24  25631003.488   133467358.979        -869.959          41.000                                                                  
C25  25509198.649   132833122.316       -2484.090          42.000                                                                  
C27  22505875.909   117194004.775        -440.420          46.000                                                                  
C28  22721079.235   118314606.511        2322.210          47.000                                                                  
C30  25828793.040   134497305.864       -2649.761          41.000                                                                  
C32  25223250.914   131344036.949       -2088.553          40.000                                                                  
> 2023  8  2 19 31  3.8000000  0 28                     
G 5  23659247.810   124330189.560        2430.901          42.000    23659246.720    96880669.211        1894.134          39.000  
G10  24366137.746   128044924.493       -2315.039          42.000    24366139.193    99775232.265       -1803.532          38.000  
G13  22487908.785   118174770.850        3165.943          40.000                                                                  
G15  20293256.738   106641784.869        1639.085          46.000    20293253.182    83097493.889        1277.158          42.000  
G18  20496381.123   107709212.913       -1168.595          46.000    20496377.210    83929258.405        -910.546          45.000  
G23  21638159.799   113709311.242       -1586.545          44.000    21638156.654    88604660.237       -1236.172          42.000  
G24  21901258.415   115091909.695       -2683.524          45.000    21901257.414    89682013.934       -2090.908          42.000  
G27  24701871.242   129809218.475       -1764.862          41.000    24701872.457   101150036.824       -1374.680          37.000  
G29  23499797.336   123492264.988        3391.976          44.000    23499797.175    96227730.839        2643.409          37.000  
R 2  23887916.232   127470519.225        3270.887          41.000    23887922.272    99143736.496        2544.383          39.000  
R 3  20274344.253   108530150.251        1943.629          48.000    20274345.397    84412336.461        1511.861          48.000  
R 4  20187807.220   108104796.107        -935.113          49.000    20187809.007    84081509.167        -727.411          47.000  
R 5  23614175.576   126231301.360       -2899.697          43.000    23614183.671    98179952.554       -2255.004          39.000  
R12  23882345.457   127575209.945        -502.970          42.000    23882351.246    99225159.205        -391.329          40.000  
R17  22687047.681   121402987.604        4357.522          48.000    22687055.133    94424525.497        3389.224          45.000  
R18  19529350.395   104248995.960        1868.986          49.000    19529351.932    81082546.858        1453.683          46.000  
R19  19941440.782   106673254.459       -1887.152          37.000    19941445.231    82968114.467       -1467.673          44.000  
E 3  24513932.149   128821609.374       -1693.336          46.000    24513933.811    98707452.220       -1297.571          44.000  
E 5  23418070.930   123062789.755         791.457          46.000    23418071.805    94294865.034         606.395          44.000  
E 9  26834380.384   141015639.604        2555.439          40.000    26834384.137   108050948.490        1958.127          40.000  
E15  25614937.324   134607405.134       -2350.679          44.000    25614940.380   103140747.666       -1801.123          41.000  
C14  25252092.785   131494274.474        2393.390          38.000    25252088.282   101679713.930        1850.738          43.000  
C24  25630970.055   133467184.792        -870.210          41.000                                                                  
C25  25509103.032   132832625.305       -2484.124          42.000                                                                  
C27  22505858.969   117193916.571        -439.716          46.000                                                                  
C28  22721168.384   118315070.772        2322.351          47.000                                                                  
C30  25828691.205   134496775.728       -2649.560          42.000                                                                  
C32  25223170.682   131343619.044       -2088.341          40.000                                                                  
> 2023  8  2 19 31  4.0000000  0 28                     
G 5  23659340.229   124330675.299        2430.415          42.000    23659339.049    96881047.721        1893.910          39.000  
G10  24366049.580   128044461.225       -2314.089          42.000    24366050.849    99774871.247       -1803.253          39.000  
G13  22488029.222   118175403.640        3165.798          40.000                                                                  
G15  20293319.065   106642112.271        1638.996          46.000    20293315.509    83097749.006        1277.108          42.000  
G18  20496336.611   107708978.803       -1168.562          46.000    20496332.591    83929075.997        -910.502          45.000  
G23  21638099.384   113708993.614       -1586.070          44.000    21638096.024    88604412.760       -1235.647          42.000  
G24  21901156.133   115091372.592       -2683.568          45.000    21901155.025    89681595.389       -2091.361          42.000  
G27  24701804.037   129808865.191       -1764.275          41.000    24701805.448   101149761.528       -1374.658          37.000  
G29  23499926.529   123492943.025        3392.088          44.000    23499925.993    96228259.156        2643.213          37.000  
R 2  23888038.760   127471173.063        3270.865          41.000    23888044.996    99144245.013        2544.215          39.000  
R 3  20274416.748   108530538.619        1943.752          48.000    20274417.909    84412638.532        1511.961          48.000  
R 4  20187772.143   108104608.693        -934.817          49.000    20187774.001    84081363.405        -727.104          47.000  
R 5  23614067.040   126230721.119       -2898.870          44.000    23614075.045    98179501.240       -2254.931          39.000  
R12  23882326.426   127575108.836        -503.540          42.000    23882332.430    99225080.583        -391.675          41.000  
R17  22687210.647   121403858.691        4357.338          48.000    22687217.866    94425202.977        3388.805          45.000  
R18  19529420.245   104249369.346        1869.047          49.000    19529421.818    81082837.281        1453.705          46.000  
R19  19941370.288   106672876.626       -1886.939          37.000    19941374.684    82967820.628       -1467.500          43.000  
E 3  24513867.588   128821270.363       -1693.079          46.000    24513869.304    98707192.447       -1297.415          44.000  
E 5  23418100.967   123062947.660         791.345          46.000    23418101.861    94294986.013         606.311          44.000  
E 9  26834477.592   141016150.286        2555.126          40.000    26834481.344   108051339.776        1957.798          40.000  
E15  25614847.800   134606934.674       -2350.254          44.000    25614850.838   103140387.173       -1800.877          41.000  
C14  25252184.668   131494752.652        2392.646          38.000    25252180.129   101680083.669        1850.023          43.000  
C24  25630936.497   133467010.297        -870.557          41.000                                                                  
C25  25509007.540   132832128.003       -2484.828          42.000                                                                  
C27  22505842.065   117193828.247        -439.470          47.000                                                                  
C28  22721257.515   118315534.870        2322.462          47.000                                                                  
C30  25828589.387   134496245.522       -2648.761          42.000                                                                  
C32  25223090.450   131343201.066       -2087.754          40.000                                                                  
> 2023  8  2 19 31  4.2000000  0 28                     
G 5  23659432.683   124331161.153        2430.387          42.000    23659431.522    96881426.319        1893.798          40.000  
G10  24365961.450   128043998.225       -2313.435          42.000    24365962.951    99774510.507       -1802.442          39.000  
G13  22488149.606   118176036.566        3165.765          40.000                                                                  
G15  20293381.410   106642439.897        1639.488          46.000    20293377.800    83098004.282        1277.360          43.000  
G18  20496292.100   107708744.983       -1167.651          46.000    20496288.115    83928893.779        -909.982          45.000  
G23  21638039.022   113708676.274       -1585.389          44.000    21638035.520    88604165.471       -1235.267          42.000  
G24  21901053.904   115090835.579       -2683.837          45.000    21901052.564    89681176.981       -2091.121          42.000  
G27  24701736.938   129808512.280       -1762.979          41.000    24701738.457   101149486.498       -1374.077          37.000  
G29  23500055.758   123493621.305        3392.697          44.000    23500054.918    96228787.689        2643.638          37.000  
R 2  23888161.466   127471826.949        3270.596          41.000    23888167.506    99144753.651        2544.058          38.000  
R 3  20274489.403   108530927.199        1944.266          48.000    20274490.547    84412940.743        1512.201          48.000  
R 4  20187737.173   108104421.608        -933.895          49.000    20187739.085    84081217.916        -726.277          47.000  
R 5  23613958.593   126230141.178       -2898.054          44.000    23613966.509    98179050.184       -2253.976          39.000  
R12  23882307.396   127575007.993        -502.987          42.000    23882313.435    99225002.147        -391.251          40.000  
R17  22687373.594   121404729.943        4357.589          48.000    22687380.635    94425880.638        3389.241          45.000  
R18  19529490.202   104249742.997        1869.695          49.000    19529491.882    81083127.892        1454.141          46.000  
R19  19941300.027   106672499.132       -1885.878          37.000    19941304.084    82967527.011       -1466.952          43.000  
E 3  24513803.081   128820931.613       -1692.470          46.000    24513804.850    98706932.892       -1296.750          44.000  
E 5  23418131.023   123063105.783         791.747          46.000    23418131.917    94295107.197         606.797          44.000  
E 9  26834574.817   141016661.144        2555.355          40.000    26834578.480   108051731.199        1957.960          40.000  
E15  25614758.294   134606464.490       -2349.505          44.000    25614761.368   103140026.914       -1800.212          41.000  
C14  25252276.425   131495230.997        2392.943          38.000    25252271.976   101680453.536        1850.118          43.000  
C24  25630902.974   133466836.017        -870.138          41.000                                                                  
C25  25508912.084   132831630.838       -2484.799          42.000                                                                  
C27  22505825.179   117193740.252        -438.525          47.000                                                                  
C28  22721346.681   118315999.206        2323.026          47.000                                                                  
C30  25828487.623   134495715.662       -2647.710          42.000                                                                  
C32  25223010.254   131342783.484       -2086.263          40.000                                                                  
> 2023  8  2 19 31  4.4000000  0 28                     
G 5  23659524.709   124331644.712        2429.834          42.000    23659523.529    96881803.107        1893.463          40.000  
G10  24365872.981   128043533.159       -2312.815          42.000    24365874.285    99774148.033       -1802.425          39.000  
G13  22488269.632   118176667.261        3165.614          40.000                                                                  
G15  20293443.362   106642765.265        1639.197          46.000    20293439.681    83098257.839        1277.225          43.000  
G18  20496247.266   107708508.948       -1167.707          46.000    20496243.156    83928709.876        -909.792          46.000  
G23  21637978.232   113708356.771       -1585.047          44.000    21637974.801    88603916.505       -1235.015          42.000  
G24  21900951.264   115090296.374       -2683.697          45.000    21900949.870    89680756.780       -2091.489          42.000  
G27  24701669.447   129808157.200       -1762.811          41.000    24701670.859   101149209.780       -1373.937          37.000  
G29  23500184.487   123494297.361        3392.820          44.000    23500183.736    96229314.529        2643.766          38.000  
R 2  23888283.690   127472478.567        3270.373          41.000    23888289.730    99145260.375        2543.382          39.000  
R 3  20274561.451   108531313.496        1944.143          48.000    20274562.738    84413241.192        1512.045          48.000  
R 4  20187701.792   108104232.344        -933.509          50.000    20187703.704    84081070.673        -726.333          47.000  
R 5  23613849.645   126229559.036       -2897.998          43.000    23613857.740    98178597.388       -2253.992          40.000  
R12  23882288.204   127574904.730        -504.043          42.000    23882294.030    99224921.860        -391.698          41.000  
R17  22687536.149   121405598.920        4357.422          48.000    22687542.903    94426556.504        3389.046          45.000  
R18  19529559.588   104250114.400        1869.650          49.000    19529561.482    81083416.773        1454.264          46.000  
R19  19941229.212   106672119.417       -1885.856          37.000    19941233.036    82967231.699       -1466.645          43.000  
E 3  24513738.199   128820590.721       -1691.850          46.000    24513740.021    98706671.694       -1296.431          44.000  
E 5  23418160.668   123063261.687         792.004          46.000    23418161.597    94295226.650         606.668          44.000  
E 9  26834671.632   141017169.658        2554.937          40.000    26834675.259   108052120.864        1957.692          40.000  
E15  25614668.395   134605992.156       -2348.980          44.000    25614671.486   103139665.002       -1799.994          41.000  
C14  25252367.808   131495707.003        2392.149          38.000    25252363.376   101680821.630        1849.699          43.000  
C24  25630869.005   133466659.404        -870.965          41.000                                                                  
C25  25508816.163   132831131.356       -2485.319          42.000                                                                  
C27  22505807.899   117193650.108        -438.229          47.000                                                                  
C28  22721435.401   118316461.364        2323.217          47.000                                                                  
C30  25828385.501   134495183.639       -2647.554          42.000                                                                  
C32  25222929.646   131342363.773       -2085.950          40.000                                                                  
> 2023  8  2 19 31  4.6000000  0 28                     
G 5  23659617.163   124332130.040        2429.113          42.000    23659615.859    96882181.274        1892.675          40.000  
G10  24365784.851   128043070.059       -2312.491          42.000    24365786.244    99773787.201       -1802.101          39.000  
G13  22488389.980   118177299.849        3165.396          40.000    22488386.603    92086197.6521       2466.545          31.000  
G15  20293505.707   106643092.550        1638.990          46.000    20293502.080    83098512.878        1277.203          43.000  
G18  20496202.719   107708274.902       -1167.511          46.000    20496198.609    83928527.505        -909.624          46.000  
G23  21637917.834   113708039.290       -1584.667          44.000    21637914.368    88603669.092       -1234.809          42.000  
G24  21900849.036   115089759.029       -2684.167          45.000    21900847.588    89680338.082       -2091.623          42.000  
G27  24701602.242   129807804.106       -1762.655          41.000    24701604.011   101148934.686       -1373.261          38.000  
G29  23500313.608   123494975.386        3392.713          44.000    23500312.750    96229842.878        2643.945          38.000  
R 2  23888406.272   127473132.009        3269.864          41.000    23888412.312    99145768.647        2543.365          39.000  
R 3  20274633.964   108531701.757        1943.953          48.000    20274635.286    84413543.170        1511.917          47.000  
R 4  20187666.876   108104045.119        -933.191          50.000    20187668.717    84080925.074        -725.808          47.000  
R 5  23613741.109   126228979.031       -2897.043          43.000    23613749.311    98178146.239       -2253.518          39.000  
R12  23882269.102   127574803.470        -503.875          41.000    23882275.178    99224843.074        -392.005          41.000  
R17  22687698.989   121406469.819        4357.120          48.000    22687705.672    94427233.879        3388.828          45.000  
R18  19529629.491   104250487.834        1869.919          49.000    19529631.457    81083707.202        1454.326          46.000  
R19  19941158.594   106671741.806       -1885.431          37.000    19941162.329    82966937.955       -1466.399          43.000  
E 3  24513673.727   128820251.807       -1691.671          46.000    24513675.514    98706412.011       -1296.269          44.000  
E 5  23418190.670   123063419.520         791.887          46.000    23418191.635    94295347.590         606.708          44.000  
E 9  26834768.839   141017680.055        2554.500          40.000    26834772.359   108052511.932        1957.239          40.000  
E15  25614578.907   134605521.811       -2348.823          44.000    25614581.963   103139304.605       -1799.804          41.000  
C14  25252459.583   131496184.860        2391.551          38.000    25252455.187   101681191.139        1849.252          43.000  
C24  25630835.429   133466484.586        -871.814          41.000                                                                  
C25  25508720.581   132830633.746       -2485.644          42.000                                                                  
C27  22505790.995   117193561.985        -437.782          47.000                                                                  
C28  22721524.478   118316925.451        2323.122          47.000                                                                  
C30  25828283.720   134494653.590       -2647.621          42.000                                                                  
C32  25222849.343   131341946.020       -2086.128          40.000                                                                  
> 2023  8  2 19 31  4.8000000  0 28                     
G 5  23659709.528   124332615.548        2428.895          42.000    23659708.509    96882559.559        1892.452          40.000  
G10  24365696.756   128042607.223       -2312.379          42.000    24365698.114    99773426.566       -1801.788          39.000  
G13  22488510.346   118177932.507        3164.921          40.000    22488506.915    92086690.617        2466.176          31.000  
G15  20293568.052   106643420.035        1638.956          46.000    20293564.371    83098768.065        1277.236          43.000  
G18  20496158.153   107708041.097       -1167.237          46.000    20496154.097    83928345.310        -909.630          46.000  
G23  21637857.419   113707722.018       -1584.617          44.000    21637854.096    88603421.844       -1235.043          43.000  
G24  21900746.843   115089221.826       -2684.597          45.000    21900745.020    89679919.488       -2091.825          42.000  
G27  24701535.108   129807451.330       -1761.984          40.000    24701536.859   101148659.789       -1373.026          38.000  
G29  23500442.694   123495653.633        3392.875          44.000    23500441.979    96230371.319        2643.515          39.000  
R 2  23888528.728   127473785.597        3269.316          40.000    23888534.804    99146276.984        2542.846          39.000  
R 3  20274706.494   108532090.203        1943.791          48.000    20274707.888    84413845.281        1511.777          48.000  
R 4  20187631.925   108103858.157        -932.911          50.000    20187633.765    84080779.669        -725.595          47.000  
R 5  23613632.626   126228399.212       -2897.249          43.000    23613640.899    98177695.301       -2253.244          39.000  
R12  23882250.197   127574702.307        -503.987          41.000    23882256.272    99224764.457        -391.485          41.000  
R17  22687861.937   121407340.876        4356.762          48.000    22687868.423    94427911.375        3388.643          45.000  
R18  19529699.431   104250861.449        1869.751          49.000    19529701.521    81083997.806        1454.242          46.000  
R19  19941088.083   106671364.365       -1885.252          37.000    19941091.657    82966644.427       -1466.399          42.000  
E 3  24513609.345   128819913.113       -1691.710          46.000    24513611.078    98706152.485       -1296.303          44.000  
E 5  23418220.743   123063577.498         791.485          46.000    23418221.708    94295468.655         606.585          44.000  
E 9  26834866.011   141018190.567        2553.953          40.000    26834869.477   108052903.113        1957.055          40.000  
E15  25614489.455   134605051.721       -2348.757          44.000    25614492.492   103138944.391       -1799.737          41.000  
C14  25252551.322   131496662.784        2390.758          38.000    25252546.980   101681560.736        1849.056          43.000  
C24  25630801.925   133466309.937        -871.775          41.000                                                                  
C25  25508625.071   132830136.148       -2486.722          42.000                                                                  
C27  22505774.163   117193474.107        -437.676          47.000                                                                  
C28  22721613.609   118317389.740        2323.026          47.000                                                                  
C30  25828181.920   134494123.817       -2647.068          42.000                                                                  
C32  25222769.040   131341528.551       -2085.508          40.000                                                                  
> 2023  8  2 19 31  5.0000000  0 28                     
G 5  23659801.893   124333100.797        2428.767          42.000    23659800.660    96882937.714        1892.669          40.000  
G10  24365608.608   128042144.276       -2312.178          42.000    24365609.984    99773065.818       -1801.744          39.000  
G13  22488630.711   118178565.048        3165.245          40.000    22488627.048    92087183.522        2466.427          31.000  
G15  20293630.379   106643747.358        1639.135          46.000    20293626.573    83099023.099        1277.236          43.000  
G18  20496113.624   107707807.166       -1167.143          46.000    20496109.621    83928163.006        -909.451          46.000  
G23  21637797.040   113707404.619       -1584.438          44.000    21637793.823    88603174.546       -1234.552          43.000  
G24  21900644.542   115088684.461       -2684.329          45.000    21900642.309    89679500.776       -2091.646          42.000  
G27  24701467.956   129807098.377       -1762.118          41.000    24701470.011   101148384.761       -1373.149          38.000  
G29  23500571.530   123496331.767        3393.446          43.000    23500571.065    96230899.721        2643.934          39.000  
R 2  23888651.131   127474439.021        3269.657          40.000    23888656.903    99146785.150        2542.834          39.000  
R 3  20274778.989   108532478.458        1943.831          48.000    20274780.454    84414147.287        1512.017          48.000  
R 4  20187596.919   108103671.066        -932.682          50.000    20187598.813    84080634.154        -725.372          47.000  
R 5  23613524.072   126227819.339       -2896.691          43.000    23613532.649    98177244.284       -2252.981          39.000  
R12  23882231.077   127574601.040        -503.836          41.000    23882237.385    99224685.582        -392.273          40.000  
R17  22688024.849   121408211.787        4357.109          48.000    22688031.103    94428588.729        3388.906          44.000  
R18  19529769.388   104251234.963        1870.193          49.000    19529771.497    81084288.317        1454.688          46.000  
R19  19941017.518   106670986.831       -1885.023          37.000    19941020.931    82966350.801       -1466.086          42.000  
E 3  24513544.891   128819574.293       -1691.599          46.000    24513546.571    98705892.895       -1295.984          44.000  
E 5  23418250.746   123063735.351         791.607          46.000    23418251.728    94295589.594         606.652          44.000  
E 9  26834963.129   141018700.865        2553.908          40.000    26834966.613   108053294.138        1957.060          40.000  
E15  25614399.967   134604581.481       -2348.617          44.000    25614403.004   103138584.086       -1799.597          41.000  
C14  25252642.991   131497140.615        2391.641          38.000    25252638.702   101681930.172        1848.995          43.000  
C24  25630768.403   133466135.072        -871.753          41.000                                                                  
C25  25508529.454   132829638.465       -2485.973          42.000                                                                  
C27  22505757.276   117193386.118        -437.347          47.000                                                                  
C28  22721702.686   118317853.908        2323.378          47.000                                                                  
C30  25828080.173   134493593.911       -2646.816          42.000                                                                  
C32  25222688.915   131341110.974       -2085.184          40.000                                                                  
> 2023  8  2 19 31  5.2000000  0 28                     
G 5  23659894.311   124333586.345        2428.934          42.000    23659892.757    96883316.032        1892.686          39.000  
G10  24365520.586   128041681.634       -2311.988          42.000    24365521.926    99772705.339       -1801.526          39.000  
G13  22488751.166   118179197.847        3165.200          40.000                                                                  
G15  20293692.706   106644074.948        1639.113          46.000    20293688.864    83099278.364        1277.158          43.000  
G18  20496069.148   107707573.469       -1167.377          46.000    20496065.270    83927980.957        -909.423          45.000  
G23  21637736.696   113707087.479       -1584.601          44.000    21637733.569    88602927.439       -1234.613          42.000  
G24  21900542.278   115088147.383       -2684.256          45.000    21900539.884    89679082.269       -2091.635          41.000  
G27  24701400.893   129806745.762       -1761.850          41.000    24701403.056   101148110.012       -1372.802          38.000  
G29  23500700.562   123497010.117        3392.775          43.000    23500700.490    96231428.342        2644.113          39.000  
R 2  23888773.748   127475092.594        3268.987          41.000    23888779.502    99147293.545        2542.974          39.000  
R 3  20274851.555   108532867.053        1943.953          48.000    20274853.056    84414449.504        1511.989          48.000  
R 4  20187562.003   108103484.263        -932.811          50.000    20187563.844    84080488.876        -725.444          47.000  
R 5  23613415.660   126227239.767       -2896.579          43.000    23613424.363    98176793.515       -2252.735          40.000  
R12  23882212.207   127574500.000        -503.814          41.000    23882218.497    99224607.065        -391.726          40.000  
R17  22688187.868   121409082.976        4357.131          49.000    22688193.818    94429266.297        3388.643          44.000  
R18  19529839.417   104251608.739        1870.170          49.000    19529841.561    81084579.029        1454.554          46.000  
R19  19940947.150   106670609.638       -1884.872          37.000    19940950.313    82966057.396       -1466.204          42.000  
E 3  24513480.456   128819235.763       -1691.476          46.000    24513482.135    98705633.495       -1296.113          44.000  
E 5  23418280.819   123063893.456         791.725          46.000    23418281.802    94295710.741         606.596          44.000  
E 9  26835060.301   141019211.473        2554.159          40.000    26835063.785   108053685.386        1957.094          40.000  
E15  25614310.550   134604111.523       -2348.566          44.000    25614313.570   103138223.980       -1799.737          41.000  
C14  25252734.819   131497618.612        2391.177          38.000    25252730.495   101682299.789        1848.945          43.000  
C24  25630734.845   133465960.463        -871.859          41.000                                                                  
C25  25508433.927   132829140.992       -2486.197          42.000                                                                  
C27  22505740.426   117193298.416        -437.268          46.000                                                                  
C28  22721791.870   118318318.355        2323.401          47.000                                                                  
C30  25827978.481   134493064.292       -2647.051          42.000                                                                  
C32  25222608.880   131340693.674       -2085.413          40.000                                                                  
> 2023  8  2 19 31  5.4000000  0 28                     
G 5  23659986.676   124334071.885        2428.666          41.000    23659985.229    96883694.381        1892.384          39.000  
G10  24365432.545   128041218.959       -2312.485          42.000    24365434.117    99772344.797       -1801.956          39.000  
G13  22488871.568   118179830.658        3165.223          40.000                                                                  
G15  20293755.051   106644402.564        1639.102          46.000    20293751.281    83099533.663        1277.253          43.000  
G18  20496024.654   107707339.849       -1167.120          46.000    20496020.776    83927798.888        -909.574          46.000  
G23  21637676.370   113706770.385       -1584.545          44.000    21637673.297    88602680.351       -1234.680          43.000  
G24  21900440.031   115087610.332       -2684.301          45.000    21900437.476    89678663.788       -2091.623          42.000  
G27  24701333.831   129806393.130       -1762.196          41.000    24701336.136   101147835.251       -1373.121          38.000  
G29  23500829.648   123497688.533        3392.797          42.000    23500829.648    96231956.957        2643.761          39.000  
R 2  23888896.348   127475746.215        3269.227          40.000    23888902.155    99147801.939        2542.751          39.000  
R 3  20274924.085   108533255.616        1943.802          49.000    20274925.676    84414751.741        1511.933          48.000  
R 4  20187527.123   108103297.507        -932.939          50.000    20187528.981    84080343.629        -725.344          47.000  
R 5  23613307.231   126226660.136       -2897.356          43.000    23613316.130    98176342.693       -2253.412          40.000  
R12  23882193.409   127574399.053        -503.847          41.000    23882199.788    99224528.529        -391.820          41.000  
R17  22688350.887   121409954.150        4356.779          49.000    22688356.569    94429943.907        3388.643          44.000  
R18  19529909.410   104251982.587        1870.204          49.000    19529911.500    81084869.818        1454.672          46.000  
R19  19940876.603   106670232.454       -1884.805          37.000    19940879.641    82965764.061       -1465.818          42.000  
E 3  24513415.984   128818897.266       -1691.408          46.000    24513417.735    98705374.120       -1296.186          44.000  
E 5  23418310.911   123064051.606         791.803          46.000    23418311.893    94295831.921         606.574          45.000  
E 9  26835157.490   141019722.073        2554.115          40.000    26835160.975   108054076.614        1956.803          41.000  
E15  25614221.151   134603641.566       -2348.700          44.000    25614224.135   103137863.905       -1799.698          41.000  
C14  25252826.684   131498096.624        2390.959          38.000    25252822.270   101682669.423        1848.839          43.000  
C24  25630701.322   133465785.889        -871.948          41.000                                                                  
C25  25508338.417   132828643.519       -2486.532          42.000                                                                  
C27  22505723.575   117193210.753        -437.296          46.000                                                                  
C28  22721881.090   118318782.807        2323.245          47.000                                                                  
C30  25827876.717   134492534.679       -2647.224          42.000                                                                  
C32  25222528.809   131340276.363       -2085.704          40.000                                                                  
> 2023  8  2 19 31  5.6000000  0 28                     
G 5  23660079.167   124334557.431        2428.018          42.000    23660077.666    96884072.737        1892.278          40.000  
G10  24365344.504   128040756.299       -2312.982          42.000    24365345.862    99771984.313       -1802.101          40.000  
G13  22488991.987   118180463.492        3164.759          40.000                                                                  
G15  20293817.414   106644730.272        1639.102          46.000    20293813.680    83099789.004        1277.097          43.000  
G18  20495980.178   107707106.279       -1167.377          45.000    20495976.247    83927616.876        -909.591          46.000  
G23  21637616.062   113706453.294       -1585.087          44.000    21637612.935    88602433.279       -1234.926          43.000  
G24  21900337.821   115087073.343       -2684.440          45.000    21900335.122    89678245.359       -2091.746          42.000  
G27  24701266.715   129806040.626       -1761.973          41.000    24701268.931   101147560.537       -1373.132          38.000  
G29  23500958.662   123498366.895        3392.417          42.000    23500959.127    96232485.581        2643.219          40.000  
R 2  23889019.108   127476399.934        3268.925          40.000    23889024.647    99148310.351        2542.382          39.000  
R 3  20274996.687   108533644.277        1943.741          49.000    20274998.295    84415054.044        1511.900          48.000  
R 4  20187492.260   108103110.814        -932.934          50.000    20187494.101    84080198.409        -725.713          47.000  
R 5  23613198.945   126226080.600       -2897.194          43.000    23613207.754    98175891.936       -2253.612          40.000  
R12  23882174.647   127574298.182        -503.937          41.000    23882180.901    99224450.038        -392.105          41.000  
R17  22688513.942   121410825.353        4356.427          49.000    22688519.320    94430621.485        3388.224          44.000  
R18  19529979.349   104252356.509        1870.165          49.000    19529981.511    81085160.651        1454.566          46.000  
R19  19940806.074   106669855.332       -1884.788          37.000    19940808.915    82965470.742       -1466.092          42.000  
E 3  24513351.567   128818558.795       -1691.844          46.000    24513353.318    98705114.770       -1296.404          44.000  
E 5  23418341.038   123064209.816         791.557          46.000    23418341.985    94295953.138         606.473          45.000  
E 9  26835254.698   141020232.732        2553.780          40.000    26835258.129   108054467.900        1956.937          41.000  
E15  25614131.753   134603171.681       -2348.952          44.000    25614134.701   103137503.868       -1799.787          41.000  
C14  25252918.424   131498574.725        2390.864          38.000    25252914.081   101683039.133        1849.006          43.000  
C24  25630667.800   133465611.394        -871.965          41.000                                                                  
C25  25508242.960   132828146.118       -2486.632          42.000                                                                  
C27  22505706.725   117193123.144        -437.548          46.000                                                                  
C28  22721970.310   118319247.318        2322.965          47.000                                                                  
C30  25827775.078   134492005.125       -2647.420          42.000                                                                  
C32  25222448.630   131339859.112       -2085.720          40.000                                                                  
> 2023  8  2 19 31  5.8000000  0 28                     
G 5  23660171.496   124335042.915        2429.649          42.000    23660170.031    96884451.043        1893.133          40.000  
G10  24365256.410   128040293.487       -2312.150          43.000    24365258.054    99771623.664       -1801.839          40.000  
G13  22489112.460   118181096.209        3165.552          40.000                                                                  
G15  20293879.759   106645057.797        1639.599          46.000    20293875.828    83100044.237        1277.689          43.000  
G18  20495935.684   107706872.541       -1166.785          46.000    20495931.771    83927434.740        -909.183          46.000  
G23  21637555.754   113706136.057       -1584.299          45.000    21637552.449    88602186.040       -1234.702          43.000  
G24  21900235.592   115086536.186       -2683.753          45.000    21900232.876    89677826.771       -2091.467          42.000  
G27  24701199.545   129805687.873       -1761.855          41.000    24701201.922   101147285.708       -1372.574          38.000  
G29  23501087.587   123499045.146        3393.177          42.000    23501088.659    96233014.040        2643.945          40.000  
R 2  23889141.725   127477053.453        3269.523          40.000    23889147.122    99148818.616        2542.801          39.000  
R 3  20275069.182   108534032.759        1944.462          49.000    20275070.790    84415356.158        1512.123          48.000  
R 4  20187457.380   108102923.921        -932.520          50.000    20187459.185    84080053.006        -725.472          47.000  
R 5  23613090.391   126225500.838       -2896.903          43.000    23613099.272    98175440.993       -2253.216          40.000  
R12  23882155.706   127574197.110        -503.255          41.000    23882162.192    99224371.474        -391.217          41.000  
R17  22688676.889   121411696.387        4357.198          49.000    22688682.089    94431298.971        3388.911          44.000  
R18  19530049.181   104252730.273        1870.863          48.000    19530051.504    81085451.331        1455.013          46.000  
R19  19940735.313   106669478.026       -1884.453          37.000    19940738.047    82965177.316       -1465.673          42.000  
E 3  24513287.113   128818220.139       -1691.660          46.000    24513288.864    98704855.285       -1295.973          44.000  
E 5  23418371.093   123064367.848         791.887          46.000    23418372.076    94296074.236         607.037          45.000  
E 9  26835351.887   141020743.214        2554.082          40.000    26835355.300   108054859.062        1957.334          40.000  
E15  25614042.282   134602701.580       -2348.801          44.000    25614045.284   103137143.665       -1799.491          41.000  
C14  25253010.163   131499052.618        2391.557          38.000    25253005.875   101683408.689        1849.347          43.000  
C24  25630634.224   133465436.747        -871.244          41.000                                                                  
C25  25508147.397   132827648.520       -2486.102          42.000                                                                  
C27  22505689.857   117193035.350        -437.005          46.000                                                                  
C28  22722059.459   118319711.651        2323.608          47.000                                                                  
C30  25827673.385   134491475.410       -2646.688          42.000                                                                  
C32  25222368.434   131339441.664       -2085.150          40.000                                                                  
> 2023  8  2 19 31  6.0000000  0 28                     
G 5  23660263.879   124335528.428        2429.135          42.000    23660262.467    96884829.343        1892.742          40.000  
G10  24365168.387   128039830.663       -2312.692          43.000    24365170.120    99771263.040       -1801.895          40.000  
G13  22489232.951   118181728.964        3165.346          40.000                                                                  
G15  20293942.122   106645385.382        1639.403          46.000    20293938.173    83100299.522        1277.689          43.000  
G18  20495891.244   107706638.853       -1166.908          46.000    20495887.295    83927252.644        -909.356          46.000  
G23  21637495.447   113705818.784       -1584.908          45.000    21637491.944    88601938.849       -1234.809          43.000  
G24  21900133.363   115085999.100       -2683.865          45.000    21900130.647    89677408.273       -2091.199          42.000  
G27  24701132.483   129805335.202       -1761.984          41.000    24701134.520   101147010.863       -1373.009          38.000  
G29  23501216.423   123499723.490        3393.434          42.000    23501217.888    96233542.567        2643.872          41.000  
R 2  23889264.057   127477706.988        3269.294          40.000    23889269.489    99149326.978        2543.187          39.000  
R 3  20275141.712   108534421.265        1944.104          49.000    20275143.410    84415658.366        1512.252          48.000  
R 4  20187422.517   108102737.055        -932.789          50.000    20187424.322    84079907.714        -725.344          47.000  
R 5  23612981.997   126224921.108       -2897.116          44.000    23612990.789    98174990.160       -2253.053          40.000  
R12  23882136.693   127574096.180        -502.998          41.000    23882143.304    99224292.971        -391.178          40.000  
R17  22688839.944   121412567.548        4357.478          50.000    22688844.912    94431976.558        3389.230          45.000  
R18  19530119.067   104253104.115        1870.802          48.000    19530121.515    81085742.097        1455.130          46.000  
R19  19940664.784   106669100.841       -1884.515          37.000    19940667.339    82964883.901       -1465.840          42.000  
E 3  24513222.642   128817881.521       -1691.487          46.000    24513224.428    98704595.804       -1296.320          44.000  
E 5  23418401.149   123064525.921         792.055          46.000    23418402.168    94296195.353         606.724          45.000  
E 9  26835449.023   141021253.794        2554.495          40.000    26835452.508   108055250.251        1957.127          40.000  
E15  25613952.866   134602231.525       -2348.723          44.000    25613955.850   103136783.480       -1799.815          41.000  
C14  25253101.992   131499530.618        2391.619          38.000    25253097.668   101683778.275        1849.135          43.000  
C24  25630600.666   133465262.252        -870.808          41.000                                                                  
C25  25508051.940   132827151.038       -2485.828          42.000                                                                  
C27  22505673.042   117192947.599        -437.291          47.000                                                                  
C28  22722148.643   118320176.046        2323.501          47.000                                                                  
C30  25827571.657   134490945.690       -2647.269          42.000                                                                  
C32  25222288.220   131339024.230       -2085.625          40.000                                                                  
> 2023  8  2 19 31  6.2000000  0 28                     
G 5  23660356.244   124336013.947        2428.565          42.000    23660355.082    96885207.729        1892.669          40.000  
G10  24365080.293   128039367.818       -2313.312          43.000    24365082.187    99770902.370       -1802.470          40.000  
G13  22489353.317   118182361.755        3164.977          40.000                                                                  
G15  20294004.485   106645713.024        1639.214          46.000    20294000.715    83100554.819        1277.494          43.000  
G18  20495846.804   107706405.180       -1167.260          46.000    20495842.997    83927070.572        -909.518          46.000  
G23  21637435.049   113705501.550       -1585.210          45.000    21637431.618    88601691.651       -1235.228          43.000  
G24  21900031.188   115085462.084       -2683.965          45.000    21900028.365    89676989.826       -2091.283          42.000  
G27  24701065.420   129804982.537       -1762.386          41.000    24701067.243   101146736.068       -1373.199          38.000  
G29  23501345.437   123500401.750        3392.260          42.000    23501347.206    96234071.063        2643.347          41.000  
R 2  23889386.495   127478360.585        3269.149          40.000    23889391.945    99149835.331        2542.589          39.000  
R 3  20275214.278   108534809.831        1943.847          48.000    20275215.994    84415960.567        1511.894          48.000  
R 4  20187387.673   108102550.197        -933.225          50.000    20187389.388    84079762.395        -725.668          47.000  
R 5  23612873.514   126224341.342       -2898.060          43.000    23612882.413    98174539.273       -2253.679          40.000  
R12  23882117.770   127573995.331        -502.992          41.000    23882124.471    99224214.503        -391.496          41.000  
R17  22689002.963   121413438.692        4356.852          50.000    22689007.663    94432654.121        3388.822          45.000  
R18  19530189.060   104253478.002        1870.668          49.000    19530191.508    81086032.905        1454.934          46.000  
R19  19940593.879   106668723.636       -1884.822          37.000    19940596.613    82964590.562       -1465.902          41.000  
E 3  24513158.224   128817542.924       -1691.727          46.000    24513160.011    98704336.380       -1296.392          44.000  
E 5  23418431.241   123064684.041         791.842          46.000    23418432.277    94296316.503         606.568          45.000  
E 9  26835546.195   141021764.358        2554.188          40.000    26835549.644   108055641.475        1956.982          40.000  
E15  25613863.431   134601761.465       -2349.120          44.000    25613866.398   103136423.288       -1800.184          41.000  
C14  25253193.785   131500008.591        2390.981          37.000    25253189.479   101684147.900        1848.939          42.000  
C24  25630567.215   133465087.731        -871.523          41.000                                                                  
C25  25507956.377   132826653.579       -2486.225          42.000                                                                  
C27  22505656.209   117192859.872        -437.648          47.000                                                                  
C28  22722237.827   118320640.460        2323.122          47.000                                                                  
C30  25827469.946   134490415.990       -2647.548          42.000                                                                  
C32  25222208.042   131338606.761       -2086.374          40.000                                                                  
> 2023  8  2 19 31  6.4000000  0 28                     
G 5  23660448.537   124336499.428        2429.325          41.000    23660447.644    96885585.955        1892.664          40.000  
G10  24364992.163   128038904.800       -2313.340          43.000    24364994.111    99770541.575       -1802.576          40.000  
G13  22489473.718   118182994.475        3165.240          40.000                                                                  
G15  20294066.830   106646040.538        1639.414          46.000    20294062.988    83100809.979        1277.270          43.000  
G18  20495802.328   107706171.369       -1167.282          46.000    20495798.611    83926888.370        -909.579          46.000  
G23  21637374.634   113705184.195       -1584.986          45.000    21637371.167    88601444.343       -1235.172          43.000  
G24  21899928.977   115084924.916       -2684.077          45.000    21899926.369    89676571.215       -2091.808          43.000  
G27  24700998.287   129804629.734       -1762.236          41.000    24701000.145   101146461.168       -1372.959          38.000  
G29  23501474.505   123501079.842        3392.104          42.000    23501476.578    96234599.488        2643.353          41.000  
R 2  23889508.719   127479014.089        3269.244          40.000    23889514.491    99150343.559        2542.527          39.000  
R 3  20275286.808   108535198.229        1943.886          48.000    20275288.524    84416262.650        1511.833          48.000  
R 4  20187352.739   108102363.202        -933.191          50.000    20187354.436    84079616.919        -726.031          47.000  
R 5  23612764.853   126223761.487       -2897.719          43.000    23612774.091    98174088.216       -2254.015          40.000  
R12  23882098.650   127573894.332        -502.752          41.000    23882105.637    99224135.967        -391.256          41.000  
R17  22689165.947   121414309.705        4356.863          50.000    22689170.414    94433331.522        3388.219          45.000  
R18  19530259.071   104253851.715        1870.466          49.000    19530261.483    81086323.552        1454.688          46.000  
R19  19940523.350   106668346.309       -1885.051          37.000    19940526.031    82964297.052       -1466.254          42.000  
E 3  24513093.752   128817204.142       -1692.196          46.000    24513095.521    98704076.803       -1296.504          44.000  
E 5  23418461.278   123064841.999         791.546          46.000    23418462.368    94296437.563         606.646          45.000  
E 9  26835643.367   141022274.829        2554.048          40.000    26835646.780   108056032.601        1957.032          40.000  
E15  25613773.943   134601291.240       -2349.472          45.000    25613776.963   103136063.017       -1800.044          41.000  
C14  25253285.578   131500486.486        2391.155          38.000    25253281.254   101684517.445        1849.168          42.000  
C24  25630533.729   133464913.113        -871.183          41.000                                                                  
C25  25507860.795   132826155.955       -2486.415          42.000                                                                  
C27  22505639.341   117192771.982        -437.648          47.000                                                                  
C28  22722326.994   118321104.724        2322.943          47.000                                                                  
C30  25827368.182   134489886.147       -2647.370          42.000                                                                  
C32  25222127.899   131338189.150       -2086.279          40.000                                                                  
> 2023  8  2 19 31  6.6000000  0 28                     
G 5  23660541.009   124336985.050        2429.208          41.000    23660540.080    96885964.352        1892.904          40.000  
G10  24364904.104   128038441.953       -2313.256          43.000    24364906.141    99770180.916       -1802.548          40.000  
G13  22489594.191   118183627.382        3165.625          40.000    22489590.081    92091129.1421       2466.724          31.000  
G15  20294129.193   106646368.225        1639.488          46.000    20294125.154    83101065.331        1277.566          43.000  
G18  20495757.887   107705937.731       -1167.232          46.000    20495754.278    83926706.331        -909.490          46.000  
G23  21637314.219   113704866.926       -1585.282          45.000    21637310.717    88601197.147       -1235.116          43.000  
G24  21899826.802   115084387.915       -2683.921          45.000    21899823.890    89676152.807       -2091.199          42.000  
G27  24700931.206   129804277.146       -1761.922          41.000    24700933.208   101146186.405       -1372.925          39.000  
G29  23501603.591   123501758.134        3392.618          42.000    23501605.824    96235128.006        2643.465          41.000  
R 2  23889631.015   127479667.743        3269.311          40.000    23889637.108    99150851.980        2543.153          39.000  
R 3  20275359.446   108535586.824        1944.020          48.000    20275361.054    84416564.896        1512.062          48.000  
R 4  20187317.841   108102176.369        -933.101          50.000    20187319.538    84079471.644        -725.523          47.000  
R 5  23612656.352   126223181.727       -2897.797          43.000    23612665.519    98173637.357       -2253.462          40.000  
R12  23882079.798   127573793.617        -502.607          41.000    23882086.821    99224057.628        -390.686          41.000  
R17  22689328.948   121415180.920        4357.137          50.000    22689333.076    94434009.164        3388.889          44.000  
R18  19530329.082   104254225.650        1870.768          49.000    19530331.512    81086614.392        1455.091          46.000  
R19  19940452.982   106667969.190       -1884.632          37.000    19940455.430    82964003.768       -1465.600          42.000  
E 3  24513029.281   128816865.530       -1692.303          46.000    24513031.068    98703817.338       -1296.565          44.000  
E 5  23418491.352   123065000.137         791.512          46.000    23418492.460    94296558.713         606.585          45.000  
E 9  26835740.485   141022785.482        2554.154          40.000    26835743.970   108056423.878        1957.161          40.000  
E15  25613684.509   134600821.182       -2349.489          45.000    25613687.475   103135702.841       -1800.083          41.000  
C14  25253377.336   131500964.550        2391.289          38.000    25253373.047   101684887.108        1849.168          42.000  
C24  25630500.224   133464738.748        -870.613          41.000                                                                  
C25  25507765.286   132825658.581       -2485.761          42.000                                                                  
C27  22505622.526   117192684.263        -437.587          47.000                                                                  
C28  22722416.142   118321569.159        2323.167          47.000                                                                  
C30  25827266.543   134489356.488       -2647.381          42.000                                                                  
C32  25222047.757   131337771.678       -2086.324          41.000                                                                  
> 2023  8  2 19 31  6.8000000  0 28                     
G 5  23660634.107   124337473.926        2429.342          41.000    23660633.053    96886345.334        1893.117          39.000  
G10  24364816.689   128037982.304       -2313.418          43.000    24364818.583    99769822.757       -1802.565          40.000  
G13  22489715.147   118184263.468        3165.368          40.000    22489711.269    92091624.942        2466.522          31.000  
G15  20294192.163   106646699.184        1639.755          46.000    20294188.089    83101323.225        1277.712          43.000  
G18  20495714.090   107705707.351       -1167.014          46.000    20495710.534    83926526.807        -909.317          46.000  
G23  21637254.483   113704552.893       -1585.316          45.000    21637251.088    88600952.435       -1235.295          43.000  
G24  21899725.253   115083854.244       -2683.245          45.000    21899722.304    89675736.950       -2090.908          42.000  
G27  24700864.733   129803927.747       -1762.196          41.000    24700866.788   101145914.119       -1373.389          39.000  
G29  23501733.248   123502439.660        3392.568          42.000    23501735.750    96235659.104        2643.705          41.000  
R 2  23889754.061   127480324.686        3269.138          40.000    23889760.101    99151362.938        2542.834          39.000  
R 3  20275432.691   108535978.720        1944.138          49.000    20275434.282    84416869.706        1512.162          48.000  
R 4  20187283.496   108101992.840        -933.113          50.000    20187285.301    84079328.890        -725.651          47.000  
R 5  23612548.495   126222605.311       -2897.523          44.000    23612557.715    98173188.956       -2253.981          40.000  
R12  23882061.589   127573696.190        -502.456          41.000    23882068.594    99223981.856        -390.887          40.000  
R17  22689492.575   121416055.447        4357.321          50.000    22689496.381    94434689.330        3389.107          44.000  
R18  19530399.700   104254602.899        1871.098          49.000    19530402.130    81086907.813        1455.236          46.000  
R19  19940383.150   106667595.367       -1884.464          37.000    19940385.419    82963712.967       -1465.885          42.000  
E 3  24512965.453   128816530.184       -1691.878          46.000    24512967.240    98703560.384       -1296.292          43.000  
E 5  23418522.051   123065161.543         791.898          46.000    23418523.177    94296682.399         606.897          45.000  
E 9  26835838.300   141023299.392        2554.484          40.000    26835841.785   108056817.674        1957.356          40.000  
E15  25613595.646   134600354.353       -2349.237          44.000    25613598.630   103135345.138       -1800.139          41.000  
C14  25253469.719   131501445.877        2391.490          38.000    25253465.520   101685259.307        1849.442          43.000  
C24  25630467.328   133464567.597        -870.602          40.000                                                                  
C25  25507670.401   132825164.408       -2485.716          42.000                                                                  
C27  22505606.337   117192599.780        -437.341          47.000                                                                  
C28  22722505.970   118322036.836        2323.524          47.000                                                                  
C30  25827165.422   134488830.001       -2647.425          42.000                                                                  
C32  25221968.257   131337357.408       -2086.402          41.000                                                                  
> 2023  8  2 19 31  7.0000000  0 28                     
G 5  23660726.472   124337959.862        2429.655          41.000    23660725.400    96886723.978        1892.893          40.000  
G10  24364728.648   128037519.647       -2313.580          43.000    24364730.507    99769462.220       -1802.794          40.000  
G13  22489835.691   118184896.628        3165.502          40.000    22489831.706    92092118.217        2466.629          31.000  
G15  20294254.580   106647027.156        1639.666          46.000    20294250.381    83101578.811        1277.790          43.000  
G18  20495669.650   107705474.006       -1166.835          46.000    20495666.166    83926344.975        -909.205          46.000  
G23  21637194.175   113704235.876       -1585.467          45.000    21637190.708    88600705.402       -1235.384          43.000  
G24  21899623.167   115083317.633       -2683.122          45.000    21899620.254    89675318.833       -2090.729          43.000  
G27  24700797.671   129803575.343       -1762.414          41.000    24700799.601   101145639.585       -1372.881          39.000  
G29  23501862.298   123503118.263        3393.110          42.000    23501865.104    96236187.858        2643.654          41.000  
R 2  23889876.678   127480978.602        3269.216          41.000    23889882.503    99151871.520        2542.740          39.000  
R 3  20275505.365   108536367.560        1943.970          49.000    20275506.973    84417172.140        1512.028          48.000  
R 4  20187248.705   108101806.278        -932.962          50.000    20187250.457    84079183.780        -725.768          47.000  
R 5  23612440.030   126222025.847       -2897.484          44.000    23612449.232    98172738.306       -2253.568          40.000  
R12  23882042.738   127573595.776        -502.171          41.000    23882049.707    99223903.761        -390.569          40.000  
R17  22689655.540   121416926.979        4357.522          50.000    22689659.114    94435367.173        3388.945          44.000  
R18  19530469.693   104254977.199        1871.388          49.000    19530472.248    81087198.943        1455.482          46.000  
R19  19940312.567   106667218.511       -1884.375          37.000    19940314.926    82963419.874       -1465.734          42.000  
E 3  24512901.088   128816191.857       -1691.610          46.000    24512902.893    98703301.144       -1296.286          44.000  
E 5  23418552.178   123065319.974         792.127          46.000    23418553.322    94296803.794         606.870          45.000  
E 9  26835935.526   141023810.285        2554.444          40.000    26835939.028   108057209.126        1957.099          40.000  
E15  25613506.212   134599884.509       -2349.354          44.000    25613509.249   103134985.123       -1800.234          41.000  
C14  25253561.494   131501924.240        2391.456          38.000    25253557.366   101685629.154        1849.151          43.000  
C24  25630433.859   133464393.517        -870.584          40.000                                                                  
C25  25507574.909   132824667.333       -2485.521          42.000                                                                  
C27  22505589.611   117192512.332        -437.414          47.000                                                                  
C28  22722595.172   118322501.594        2323.664          47.000                                                                  
C30  25827063.801   134488300.496       -2647.895          42.000                                                                  
C32  25221888.168   131336940.140       -2086.665          41.000                                                                  
> 2023  8  2 19 31  7.2000000  0 28                     
G 5  23660818.819   124338445.402        2429.633          41.000    23660817.711    96887102.302        1893.441          40.000  
G10  24364640.518   128037056.523       -2313.765          43.000    24364642.162    99769101.320       -1803.063          40.000  
G13  22489956.075   118185529.415        3165.709          40.000    22489952.215    92092611.317        2466.791          31.000  
G15  20294316.889   106647354.749        1639.873          46.000    20294312.833    83101834.053        1277.863          43.000  
G18  20495625.210   107705240.248       -1166.796          46.000    20495621.761    83926162.831        -909.250          46.000  
G23  21637133.742   113703918.442       -1585.305          45.000    21637130.382    88600458.062       -1235.267          43.000  
G24  21899520.974   115082780.615       -2683.127          45.000    21899518.204    89674900.363       -2090.662          43.000  
G27  24700730.537   129803222.526       -1762.130          41.000    24700732.556   101145364.660       -1372.993          39.000  
G29  23501991.313   123503796.373        3392.506          42.000    23501994.225    96236716.288        2643.666          41.000  
R 2  23889999.135   127481632.088        3269.523          41.000    23890005.103    99152379.815        2543.097          38.000  
R 3  20275577.859   108536755.998        1944.194          49.000    20275579.539    84417474.248        1512.084          48.000  
R 4  20187213.736   108101619.298        -932.917          50.000    20187215.612    84079038.348        -725.472          47.000  
R 5  23612331.654   126221445.947       -2897.484          44.000    23612340.749    98172287.247       -2253.758          40.000  
R12  23882024.011   127573494.930        -501.964          41.000    23882030.676    99223825.316        -390.613          40.000  
R17  22689818.523   121417798.129        4357.807          50.000    22689821.847    94436044.736        3389.286          44.000  
R18  19530539.704   104255351.119        1871.623          49.000    19530542.188    81087489.736        1455.627          46.000  
R19  19940241.967   106666841.252       -1884.291          37.000    19940244.486    82963126.459       -1465.494          42.000  
E 3  24512836.635   128815853.119       -1691.654          46.000    24512838.422    98703041.599       -1296.230          43.000  
E 5  23418582.270   123065478.023         792.255          46.000    23418583.413    94296924.888         607.021          45.000  
E 9  26836032.662   141024320.753        2554.316          40.000    26836036.182   108057600.304        1957.401          40.000  
E15  25613416.759   134599414.237       -2349.538          45.000    25613419.761   103134624.774       -1800.228          41.000  
C14  25253653.341   131502402.158        2391.568          38.000    25253649.195   101685998.744        1849.364          43.000  
C24  25630400.354   133464219.069        -870.205          40.000                                                                  
C25  25507479.345   132824169.854       -2485.464          42.000                                                                  
C27  22505572.725   117192424.503        -437.134          47.000                                                                  
C28  22722684.356   118322965.965        2323.859          47.000                                                                  
C30  25826962.037   134487770.601       -2647.615          43.000                                                                  
C32  25221807.990   131336522.502       -2086.341          41.000                                                                  
> 2023  8  2 19 31  7.4000000  0 28                     
G 5  23660911.238   124338930.953        2429.420          41.000    23660910.040    96887480.604        1893.055          39.000  
G10  24364552.370   128036593.373       -2314.050          43.000    24364553.943    99768740.458       -1802.956          40.000  
G13  22490076.512   118186162.124        3165.329          40.000    22490072.581    92093104.329        2466.495          31.000  
G15  20294379.234   106647682.312        1639.638          46.000    20294375.071    83102089.329        1277.835          43.000  
G18  20495580.770   107705006.478       -1167.059          46.000    20495577.285    83925980.670        -909.468          46.000  
G23  21637073.309   113703600.967       -1585.478          45.000    21637069.967    88600210.654       -1235.591          43.000  
G24  21899418.745   115082243.605       -2683.060          45.000    21899416.244    89674481.902       -2090.919          42.000  
G27  24700663.403   129802869.717       -1762.130          41.000    24700665.244   101145089.691       -1373.367          38.000  
G29  23502120.488   123504474.541        3392.568          42.000    23502123.043    96237244.669        2643.157          40.000  
R 2  23890121.537   127482285.545        3269.160          41.000    23890127.398    99152888.034        2542.600          38.000  
R 3  20275650.479   108537144.432        1944.037          49.000    20275652.069    84417776.345        1511.855          47.000  
R 4  20187178.784   108101432.277        -933.280          50.000    20187180.642    84078892.850        -726.143          47.000  
R 5  23612223.189   126220865.954       -2898.278          44.000    23612232.481    98171836.149       -2254.211          39.000  
R12  23882005.123   127573394.119        -501.936          41.000    23882011.538    99223746.880        -390.535          40.000  
R17  22689981.507   121418669.231        4357.394          50.000    22689984.544    94436722.292        3389.213          44.000  
R18  19530609.715   104255724.984        1871.232          49.000    19530612.216    81087780.523        1455.303          45.000  
R19  19940171.509   106666464.017       -1884.274          37.000    19940174.082    82962833.024       -1465.745          43.000  
E 3  24512772.163   128815514.337       -1692.012          46.000    24512773.950    98702782.028       -1296.437          43.000  
E 5  23418612.343   123065636.026         791.960          46.000    23418613.487    94297045.952         606.802          44.000  
E 9  26836129.833   141024831.253        2554.288          40.000    26836133.336   108057991.451        1957.256          40.000  
E15  25613327.271   134598943.913       -2349.784          45.000    25613330.255   103134264.427       -1800.296          41.000  
C14  25253745.116   131502880.077        2391.412          38.000    25253741.006   101686368.306        1849.207          42.000  
C24  25630366.850   133464044.620        -870.294          40.000                                                                  
C25  25507383.800   132823672.381       -2485.425          42.000                                                                  
C27  22505555.821   117192336.613        -437.643          47.000                                                                  
C28  22722773.540   118323430.281        2323.339          47.000                                                                  
C30  25826860.309   134487240.680       -2647.761          43.000                                                                  
C32  25221727.812   131336104.775       -2086.821          41.000                                                                  
> 2023  8  2 19 31  7.6000000  0 28                     
G 5  23661003.710   124339416.734        2430.035          41.000    23661001.941    96887859.200        1893.569          39.000  
G10  24364464.223   128036130.441       -2313.759          43.000    24364465.509    99768379.720       -1802.962          39.000  
G13  22490197.021   118186795.184        3166.189          40.000    22490193.000    92093597.591        2467.165          31.000  
G15  20294441.615   106648010.178        1640.286          46.000    20294437.165    83102344.795        1278.220          42.000  
G18  20495536.347   107704772.981       -1166.545          46.000    20495532.934    83925798.724        -908.982          45.000  
G23  21637012.929   113703283.688       -1585.472          45.000    21637009.588    88599963.442       -1235.300          42.000  
G24  21899316.588   115081706.856       -2682.781          45.000    21899314.033    89674063.665       -2090.377          41.000  
G27  24700596.269   129802517.099       -1762.207          41.000    24700598.128   101144814.979       -1372.875          37.000  
G29  23502249.645   123505152.889        3392.775          43.000    23502252.129    96237773.284        2643.822          39.000  
R 2  23890244.047   127482939.330        3270.015          40.000    23890249.712    99153396.508        2543.411          38.000  
R 3  20275723.116   108537533.090        1944.406          49.000    20275724.671    84418078.691        1512.649          47.000  
R 4  20187143.922   108101245.515        -933.001          50.000    20187145.780    84078747.654        -725.137          47.000  
R 5  23612114.778   126220286.245       -2897.568          44.000    23612124.141    98171385.278       -2253.361          39.000  
R12  23881986.307   127573293.622        -501.618          41.000    23881992.579    99223668.755        -389.624          39.000  
R17  22690144.544   121419540.587        4357.623          50.000    22690147.474    94437400.058        3389.599          44.000  
R18  19530679.833   104256099.160        1871.791          49.000    19530682.245    81088071.597        1456.108          45.000  
R19  19940101.016   106666087.012       -1883.944          37.000    19940103.696    82962539.861       -1464.980          43.000  
E 3  24512707.710   128815175.807       -1691.984          46.000    24512709.497    98702522.599       -1296.454          43.000  
E 5  23418642.452   123065794.295         792.099          46.000    23418643.596    94297167.224         606.942          44.000  
E 9  26836227.005   141025341.994        2554.545          40.000    26836230.472   108058382.771        1957.194          40.000  
E15  25613237.837   134598473.841       -2349.550          45.000    25613240.803   103133904.219       -1800.329          41.000  
C14  25253837.034   131503358.269        2391.764          38.000    25253832.817   101686738.058        1849.403          42.000  
C24  25630333.381   133463870.494        -869.735          41.000                                                                  
C25  25507288.308   132823175.131       -2485.331          42.000                                                                  
C27  22505539.006   117192248.999        -437.212          47.000                                                                  
C28  22722862.743   118323894.870        2323.853          47.000                                                                  
C30  25826758.616   134486710.977       -2647.621          43.000                                                                  
C32  25221647.669   131335687.300       -2086.570          41.000                                                                  
> 2023  8  2 19 31  7.8000000  0 28                     
G 5  23661096.039   124339902.300        2429.878          41.000    23661094.592    96888237.552        1893.290          38.000  
G10  24364376.093   128035667.253       -2313.983          43.000    24364377.486    99768018.810       -1803.141          38.000  
G13  22490317.458   118187427.974        3166.039          40.000    22490313.294    92094090.734        2467.048          31.000  
G15  20294503.960   106648337.859        1640.359          46.000    20294499.546    83102600.111        1278.220          42.000  
G18  20495491.925   107704539.285       -1166.439          46.000    20495488.369    83925616.628        -908.982          45.000  
G23  21636952.568   113702966.242       -1585.366          45.000    21636949.351    88599716.054       -1235.429          42.000  
G24  21899214.413   115081169.916       -2682.680          45.000    21899211.786    89673645.266       -2090.411          41.000  
G27  24700529.153   129802164.340       -1761.738          41.000    24700531.280   101144540.097       -1372.646          37.000  
G29  23502378.856   123505831.063        3392.820          43.000    23502380.786    96238301.679        2643.626          38.000  
R 2  23890366.271   127483592.834        3269.501          40.000    23890372.240    99153904.822        2543.187          38.000  
R 3  20275795.647   108537921.584        1944.478          49.000    20275797.291    84418380.787        1512.213          47.000  
R 4  20187109.041   108101058.556        -932.928          50.000    20187110.810    84078602.190        -725.612          47.000  
R 5  23612006.384   126219706.292       -2897.926          44.000    23612015.640    98170934.173       -2254.143          39.000  
R12  23881967.509   127573192.943        -501.204          41.000    23881973.656    99223590.428        -390.004          39.000  
R17  22690307.563   121420411.758        4357.847          51.000    22690310.225    94438077.598        3389.258          44.000  
R18  19530749.879   104256473.160        1872.048          49.000    19530752.345    81088362.454        1455.957          45.000  
R19  19940030.558   106665709.828       -1883.984          37.000    19940033.346    82962246.460       -1465.282          43.000  
E 3  24512643.203   128814837.072       -1691.755          45.000    24512645.025    98702263.072       -1296.225          43.000  
E 5  23418672.526   123065952.386         792.440          46.000    23418673.687    94297288.369         607.244          44.000  
E 9  26836324.159   141025852.538        2554.696          40.000    26836327.625   108058773.994        1957.529          40.000  
E15  25613148.349   134598003.575       -2349.371          44.000    25613151.315   103133543.877       -1800.223          41.000  
C14  25253928.685   131503836.265        2391.976          37.000    25253924.628   101687107.694        1849.705          42.000  
C24  25630300.002   133463696.120        -869.870          41.000                                                                  
C25  25507192.798   132822677.713       -2485.157          42.000                                                                  
C27  22505522.102   117192161.204        -436.955          46.000                                                                  
C28  22722951.927   118324359.256        2323.859          47.000                                                                  
C30  25826656.834   134486181.108       -2647.403          42.000                                                                  
C32  25221567.473   131335269.578       -2086.866          40.000                                                                  
> 2023  8  2 19 31  8.0000000  0 28                     
G 5  23661188.565   124340388.236        2430.174          41.000    23661187.457    96888616.206        1893.480          38.000  
G10  24364287.980   128035204.455       -2313.396          43.000    24364289.231    99767658.186       -1802.683          38.000  
G13  22490437.895   118188061.143        3166.050          40.000    22490433.714    92094584.076        2467.054          31.000  
G15  20294566.341   106648665.872        1640.549          46.000    20294561.873    83102855.712        1278.455          42.000  
G18  20495447.502   107704305.934       -1166.176          46.000    20495443.893    83925434.796        -908.708          44.000  
G23  21636892.188   113702649.131       -1584.998          45.000    21636889.168    88599468.987       -1235.015          41.000  
G24  21899112.292   115080633.314       -2682.418          45.000    21899109.701    89673227.133       -2090.227          41.000  
G27  24700462.144   129801811.910       -1761.587          41.000    24700464.646   101144265.476       -1372.596          37.000  
G29  23502508.121   123506509.493        3392.719          44.000    23502509.925    96238830.339        2643.643          38.000  
R 2  23890488.639   127484246.750        3270.367          40.000    23890494.750    99154413.360        2543.047          38.000  
R 3  20275868.284   108538310.401        1944.663          49.000    20275869.964    84418683.247        1512.593          47.000  
R 4  20187074.179   108100871.932        -932.442          50.000    20187075.912    84078457.082        -725.266          47.000  
R 5  23611897.937   126219126.642       -2897.635          44.000    23611907.283    98170483.363       -2253.713          39.000  
R12  23881948.729   127573092.577        -501.165          41.000    23881955.054    99223512.405        -389.770          39.000  
R17  22690470.636   121421283.263        4358.037          51.000    22690473.030    94438755.447        3389.604          44.000  
R18  19530820.015   104256847.499        1872.288          49.000    19530822.445    81088653.637        1456.309          45.000  
R19  19939960.083   106665333.029       -1883.458          37.000    19939962.924    82961953.399       -1465.086          42.000  
E 3  24512578.731   128814498.654       -1691.509          45.000    24512580.643    98702003.748       -1296.202          43.000  
E 5  23418702.689   123066110.814         792.787          46.000    23418703.815    94297409.737         607.390          44.000  
E 9  26836421.313   141026363.461        2555.076          39.000    26836424.851   108059165.451        1957.719          40.000  
E15  25613058.932   134597533.632       -2349.109          44.000    25613061.827   103133183.781       -1800.083          41.000  
C14  25254020.549   131504314.594        2392.122          37.000    25254016.475   101687477.552        1849.761          42.000  
C24  25630266.605   133463522.122        -869.406          41.000                                                                  
C25  25507097.306   132822180.609       -2485.084          42.000                                                                  
C27  22505505.287   117192073.736        -436.816          46.000                                                                  
C28  22723041.129   118324823.982        2324.211          47.000                                                                  
C30  25826555.142   134485651.556       -2647.241          42.000                                                                  
C32  25221487.295   131334852.171       -2086.592          40.000                                                                  
> 2023  8  2 19 31  8.2000000  0 28                     
G 5  23661281.019   124340873.878        2430.359          41.000    23661280.036    96888994.653        1893.837          39.000  
G10  24364199.832   128034741.323       -2313.547          43.000    24364201.048    99767297.297       -1802.822          38.000  
G13  22490558.154   118188694.098        3166.843          40.000    22490554.133    92095077.305        2467.674          31.000  
G15  20294628.668   106648993.659        1641.108          46.000    20294624.308    83103111.103        1278.572          42.000  
G18  20495403.080   107704072.335       -1165.852          46.000    20495399.417    83925252.770        -908.434          45.000  
G23  21636831.773   113702331.735       -1584.779          44.000    21636828.807    88599221.649       -1235.010          42.000  
G24  21899010.170   115080096.439       -2682.272          46.000    21899007.615    89672808.782       -2090.115          41.000  
G27  24700395.028   129801459.210       -1761.358          41.000    24700397.566   101143990.650       -1372.339          37.000  
G29  23502637.367   123507187.674        3392.954          44.000    23502639.065    96239358.789        2643.923          38.000  
R 2  23890611.149   127484900.293        3270.295          40.000    23890617.206    99154921.739        2543.394          38.000  
R 3  20275940.886   108538698.981        1945.094          49.000    20275942.512    84418985.462        1512.777          47.000  
R 4  20187039.298   108100685.041        -932.280          50.000    20187041.032    84078311.704        -725.076          47.000  
R 5  23611789.544   126218546.769       -2897.249          44.000    23611798.961    98170032.348       -2253.289          40.000  
R12  23881929.895   127572992.029        -500.673          42.000    23881936.256    99223434.194        -389.250          40.000  
R17  22690633.655   121422154.434        4357.869          51.000    22690635.888    94439433.041        3389.604          44.000  
R18  19530890.151   104257221.565        1872.529          49.000    19530892.510    81088944.588        1456.516          46.000  
R19  19939889.840   106664955.985       -1882.905          37.000    19939892.502    82961660.141       -1464.611          42.000  
E 3  24512514.260   128814159.980       -1691.269          45.000    24512516.208    98701744.245       -1295.934          43.000  
E 5  23418732.798   123066268.966         792.921          46.000    23418733.924    94297530.917         607.524          44.000  
E 9  26836518.485   141026874.055        2555.148          39.000    26836521.987   108059556.708        1957.949          40.000  
E15  25612969.462   134597063.416       -2348.924          44.000    25612972.410   103132823.500       -1799.765          41.000  
C14  25254112.342   131504792.632        2392.345          37.000    25254108.304   101687847.194        1849.900          42.000  
C24  25630233.225   133463347.862        -869.093          41.000                                                                  
C25  25507001.796   132821683.197       -2485.023          42.000                                                                  
C27  22505488.473   117191985.996        -436.525          46.000                                                                  
C28  22723130.278   118325288.414        2324.340          47.000                                                                  
C30  25826453.395   134485121.758       -2646.889          42.000                                                                  
C32  25221407.116   131334434.507       -2086.106          40.000                                                                  
> 2023  8  2 19 31  8.4000000  0 28                     
G 5  23661373.473   124341359.388        2429.974          41.000    23661372.473    96889372.980        1893.396          39.000  
G10  24364111.685   128034278.079       -2313.731          43.000    24364112.971    99766936.333       -1802.979          38.000  
G13  22490678.591   118189326.879        3166.279          40.000                                                                  
G15  20294691.013   106649321.299        1640.683          45.000    20294686.742    83103366.434        1278.483          42.000  
G18  20495358.658   107703838.626       -1166.098          46.000    20495355.102    83925070.656        -908.680          45.000  
G23  21636771.358   113702014.231       -1585.064          44.000    21636768.535    88598974.243       -1235.155          42.000  
G24  21898907.995   115079559.447       -2682.546          46.000    21898905.690    89672390.312       -2090.500          42.000  
G27  24700327.930   129801106.480       -1761.196          41.000    24700330.468   101143715.750       -1372.501          37.000  
G29  23502766.560   123507865.704        3392.468          44.000    23502768.186    96239887.106        2643.380          38.000  
R 2  23890733.819   127485553.720        3269.518          41.000    23890739.609    99155429.946        2542.823          39.000  
R 3  20276013.470   108539087.442        1944.803          49.000    20276015.114    84419287.587        1512.487          47.000  
R 4  20187004.364   108100498.047        -932.514          50.000    20187006.151    84078166.238        -725.422          47.000  
R 5  23611681.132   126217966.750       -2897.708          44.000    23611690.514    98169581.219       -2253.965          40.000  
R12  23881911.007   127572891.400        -500.673          41.000    23881917.369    99223355.930        -389.289          40.000  
R17  22690796.620   121423025.491        4357.662          51.000    22690798.711    94440110.537        3389.286          44.000  
R18  19530960.287   104257595.562        1872.428          49.000    19530962.592    81089235.433        1456.113          46.000  
R19  19939819.168   106664578.831       -1883.369          37.000    19939822.206    82961366.778       -1464.812          43.000  
E 3  24512449.771   128813821.151       -1691.599          45.000    24512451.736    98701484.652       -1296.102          43.000  
E 5  23418762.908   123066426.998         792.692          46.000    23418763.998    94297652.028         607.328          44.000  
E 9  26836615.638   141027384.558        2555.015          39.000    26836619.105   108059947.857        1957.675          40.000  
E15  25612879.956   134596593.109       -2348.963          44.000    25612882.904   103132463.121       -1800.050          41.000  
C14  25254204.118   131505270.524        2391.814          37.000    25254200.169   101688216.778        1849.761          42.000  
C24  25630199.757   133463173.492        -869.551          41.000                                                                  
C25  25506906.268   132821185.657       -2485.319          42.000                                                                  
C27  22505471.604   117191898.188        -436.531          46.000                                                                  
C28  22723219.426   118325752.710        2323.853          47.000                                                                  
C30  25826351.649   134484591.837       -2647.168          42.000                                                                  
C32  25221326.956   131334016.756       -2086.408          40.000                                                                  
> 2023  8  2 19 31  8.6000000  0 28                     
G 5  23661465.856   124341845.039        2430.046          41.000    23661464.659    96889751.423        1893.664          39.000  
G10  24364023.501   128033814.938       -2313.759          43.000    24364024.948    99766575.466       -1802.761          38.000  
G13  22490798.992   118189959.857        3166.760          40.000                                                                  
G15  20294753.340   106649649.050        1640.588          45.000    20294749.123    83103621.836        1278.600          42.000  
G18  20495314.235   107703605.018       -1166.137          46.000    20495310.697    83924888.653        -908.529          45.000  
G23  21636710.961   113701696.815       -1585.210          45.000    21636708.280    88598726.903       -1235.261          42.000  
G24  21898805.909   115079022.566       -2682.473          46.000    21898803.568    89671972.004       -2090.036          42.000  
G27  24700260.903   129800753.833       -1761.403          41.000    24700263.209   101143440.962       -1372.456          37.000  
G29  23502895.753   123508543.820        3392.406          45.000    23502897.219    96240415.538        2643.526          38.000  
R 2  23890856.240   127486207.246        3269.490          41.000    23890862.065    99155938.274        2542.991          39.000  
R 3  20276086.036   108539475.987        1944.713          49.000    20276087.752    84419589.795        1512.582          47.000  
R 4  20186969.377   108100311.168        -932.381          50.000    20186971.289    84078020.905        -725.266          47.000  
R 5  23611572.703   126217386.844       -2897.479          44.000    23611581.923    98169130.209       -2253.512          40.000  
R12  23881892.173   127572790.876        -500.646          41.000    23881898.535    99223277.721        -389.546          40.000  
R17  22690959.639   121423896.674        4357.986          51.000    22690961.551    94440788.114        3389.403          45.000  
R18  19531030.405   104257969.654        1872.500          49.000    19531032.710    81089526.430        1456.494          46.000  
R19  19939748.710   106664201.832       -1882.894          37.000    19939751.641    82961073.568       -1464.544          43.000  
E 3  24512385.299   128813482.463       -1691.648          45.000    24512387.300    98701225.109       -1296.236          43.000  
E 5  23418792.999   123066585.144         792.546          46.000    23418794.089    94297773.208         607.361          44.000  
E 9  26836712.828   141027895.152        2554.841          39.000    26836716.330   108060339.080        1957.558          40.000  
E15  25612790.486   134596122.869       -2349.226          44.000    25612793.470   103132102.817       -1800.128          41.000  
C14  25254295.911   131505748.553        2391.903          37.000    25254292.015   101688586.384        1849.487          42.000  
C24  25630166.288   133462999.244        -869.406          41.000                                                                  
C25  25506810.758   132820688.222       -2485.347          42.000                                                                  
C27  22505454.790   117191810.478        -436.642          46.000                                                                  
C28  22723308.610   118326217.159        2324.138          47.000                                                                  
C30  25826249.957   134484062.061       -2647.017          42.000                                                                  
C32  25221246.742   131333599.084       -2086.586          40.000                                                                  
> 2023  8  2 19 31  8.8000000  0 28                     
G 5  23661558.311   124342330.846        2430.046          41.000    23661557.096    96890129.942        1893.687          39.000  
G10  24363935.407   128033351.996       -2313.591          42.000    24363937.086    99766214.705       -1802.817          38.000  
G13  22490919.429   118190592.924        3166.721          40.000                                                                  
G15  20294815.739   106649977.010        1641.035          45.000    20294811.575    83103877.373        1278.656          42.000  
G18  20495269.849   107703371.638       -1165.673          46.000    20495266.275    83924706.787        -908.311          45.000  
G23  21636650.599   113701379.580       -1585.165          45.000    21636647.919    88598479.728       -1234.987          42.000  
G24  21898703.841   115078485.850       -2682.479          46.000    21898701.751    89671553.793       -2090.159          42.000  
G27  24700193.859   129800401.353       -1761.252          41.000    24700196.235   101143166.320       -1372.261          37.000  
G29  23503024.982   123509222.141        3392.808          45.000    23503026.090    96240944.132        2643.917          38.000  
R 2  23890978.625   127486861.006        3269.847          41.000    23890984.665    99156446.726        2543.270          38.000  
R 3  20276158.638   108539864.741        1944.987          49.000    20276160.354    84419892.162        1512.688          47.000  
R 4  20186934.479   108100124.481        -932.269          50.000    20186936.426    84077875.708        -725.109          47.000  
R 5  23611464.256   126216807.114       -2897.557          44.000    23611473.512    98168679.304       -2253.423          39.000  
R12  23881873.393   127572690.537        -500.483          42.000    23881879.701    99223199.673        -389.306          40.000  
R17  22691122.676   121424768.054        4358.182          51.000    22691124.481    94441465.854        3389.833          45.000  
R18  19531100.523   104258344.008        1873.031          49.000    19531102.828    81089817.556        1456.644          46.000  
R19  19939678.449   106663825.003       -1882.816          37.000    19939681.326    82960780.507       -1464.259          43.000  
E 3  24512320.846   128813143.957       -1691.459          45.000    24512322.900    98700965.732       -1296.018          43.000  
E 5  23418823.126   123066743.478         792.731          46.000    23418824.216    94297894.522         607.462          44.000  
E 9  26836810.053   141028405.916        2554.847          40.000    26836813.520   108060730.465        1957.680          40.000  
E15  25612701.034   134595652.841       -2349.153          44.000    25612704.036   103131742.683       -1799.838          41.000  
C14  25254387.776   131506226.776        2392.362          38.000    25254383.862   101688956.152        1849.716          42.000  
C24  25630132.909   133462825.170        -869.361          41.000                                                                  
C25  25506715.302   132820190.955       -2485.084          42.000                                                                  
C27  22505437.957   117191722.957        -436.463          46.000                                                                  
C28  22723397.831   118326681.772        2324.362          47.000                                                                  
C30  25826148.246   134483532.425       -2647.000          42.000                                                                  
C32  25221166.564   131333181.574       -2086.374          41.000                                                                  
> 2023  8  2 19 31  9.0000000  0 28                     
G 5  23661650.694   124342816.574        2430.113          41.000    23661649.889    96890508.401        1893.485          39.000  
G10  24363847.295   128032888.896       -2313.988          42.000    24363848.760    99765853.855       -1803.057          38.000  
G13  22491039.867   118191225.875        3166.363          40.000                                                                  
G15  20294878.119   106650304.882        1640.890          45.000    20294873.956    83104132.853        1278.572          42.000  
G18  20495225.444   107703138.153       -1165.869          46.000    20495221.960    83924524.823        -908.602          45.000  
G23  21636590.273   113701062.231       -1585.327          45.000    21636587.539    88598232.446       -1235.211          42.000  
G24  21898601.756   115077949.078       -2682.418          46.000    21898599.504    89671135.515       -2090.210          42.000  
G27  24700126.725   129800048.846       -1760.838          41.000    24700129.119   101142891.636       -1372.244          37.000  
G29  23503154.193   123509900.360        3392.736          45.000    23503155.033    96241472.593        2643.599          38.000  
R 2  23891101.207   127487514.594        3269.233          41.000    23891107.246    99156955.079        2542.958          38.000  
R 3  20276231.276   108540253.360        1944.663          49.000    20276232.938    84420194.421        1512.520          47.000  
R 4  20186899.509   108099937.690        -932.341          50.000    20186901.492    84077730.426        -725.171          47.000  
R 5  23611355.898   126216227.319       -2897.462          44.000    23611365.172    98168228.345       -2253.389          40.000  
R12  23881854.613   127572590.139        -500.159          41.000    23881861.010    99223121.617        -388.876          40.000  
R17  22691285.660   121425639.335        4357.975          51.000    22691287.518    94442143.519        3389.699          45.000  
R18  19531170.641   104258718.241        1872.864          49.000    19531173.000    81090108.639        1456.627          46.000  
R19  19939608.099   106663448.103       -1882.916          38.000    19939610.958    82960487.364       -1464.376          43.000  
E 3  24512256.446   128812805.345       -1691.375          45.000    24512258.465    98700706.287       -1296.023          43.000  
E 5  23418853.253   123066901.718         792.781          46.000    23418854.325    94298015.773         607.400          44.000  
E 9  26836907.189   141028916.583        2554.892          40.000    26836910.710   108061121.742        1957.569          40.000  
E15  25612611.528   134595182.695       -2349.192          44.000    25612614.583   103131382.428       -1800.044          41.000  
C14  25254479.426   131506704.805        2391.613          37.000    25254475.709   101689325.801        1849.342          42.000  
C24  25630099.547   133462651.027        -868.970          41.000                                                                  
C25  25506619.792   132819693.624       -2485.107          42.000                                                                  
C27  22505421.106   117191635.354        -436.441          46.000                                                                  
C28  22723487.068   118327146.306        2324.222          47.000                                                                  
C30  25826046.536   134483002.690       -2647.196          42.000                                                                  
C32  25221086.385   131332763.954       -2086.503          41.000                                                                  
> 2023  8  2 19 31  9.2000000  0 28                     
G 5  23661743.112   124343302.322        2429.800          41.000    23661742.469    96890886.915        1893.424          39.000  
G10  24363759.093   128032425.870       -2314.128          42.000    24363760.666    99765493.034       -1803.280          38.000  
G13  22491160.429   118191858.947        3166.396          40.000                                                                  
G15  20294940.518   106650632.812        1640.840          46.000    20294936.462    83104388.363        1278.360          42.000  
G18  20495181.040   107702904.697       -1166.125          46.000    20495177.412    83924342.932        -908.579          45.000  
G23  21636529.930   113700744.941       -1585.321          45.000    21636527.196    88597985.191       -1235.440          42.000  
G24  21898499.652   115077412.402       -2682.267          46.000    21898497.472    89670717.294       -2090.293          41.000  
G27  24700059.591   129799696.313       -1761.515          41.000    24700061.843   101142616.944       -1372.585          37.000  
G29  23503283.404   123510578.643        3392.468          45.000    23503283.583    96242001.139        2643.414          37.000  
R 2  23891223.734   127488168.296        3269.652          40.000    23891229.703    99157463.470        2542.818          38.000  
R 3  20276303.913   108540642.027        1944.462          49.000    20276305.593    84420496.695        1512.240          48.000  
R 4  20186864.611   108099750.949        -932.599          50.000    20186866.594    84077585.167        -725.383          47.000  
R 5  23611247.415   126215647.523       -2897.741          44.000    23611256.779    98167777.416       -2253.724          40.000  
R12  23881835.636   127572489.796        -500.506          41.000    23881842.194    99223043.564        -389.434          40.000  
R17  22691448.625   121426510.691        4358.008          51.000    22691450.519    94442821.222        3389.331          45.000  
R18  19531240.848   104259092.553        1872.702          49.000    19531243.100    81090399.774        1456.533          46.000  
R19  19939537.713   106663071.298       -1882.944          37.000    19939540.661    82960194.268       -1464.533          43.000  
E 3  24512192.028   128812466.789       -1691.571          45.000    24512194.029    98700446.874       -1296.214          43.000  
E 5  23418883.380   123067060.002         792.636          46.000    23418884.453    94298137.058         607.278          44.000  
E 9  26837004.415   141029427.277        2554.651          40.000    26837007.953   108061513.075        1957.496          40.000  
E15  25612522.075   134594712.564       -2349.483          44.000    25612525.095   103131022.202       -1800.335          41.000  
C14  25254571.326   131507182.945        2391.691          37.000    25254567.538   101689695.558        1849.621          42.000  
C24  25630066.186   133462476.956        -869.082          41.000                                                                  
C25  25506524.318   132819196.305       -2485.531          42.000                                                                  
C27  22505404.292   117191547.810        -436.631          46.000                                                                  
C28  22723576.253   118327610.886        2324.066          47.000                                                                  
C30  25825944.825   134482473.019       -2647.313          42.000                                                                  
C32  25221006.153   131332346.381       -2086.709          41.000                                                                  
> 2023  8  2 19 31  9.4000000  0 28                     
G 5  23661835.531   124343788.105        2430.157          41.000    23661834.977    96891265.441        1893.435          39.000  
G10  24363670.999   128031962.823       -2314.223          42.000    24363672.589    99765132.230       -1803.230          39.000  
G13  22491280.902   118192491.967        3166.139          40.000                                                                  
G15  20295002.863   106650960.746        1640.862          46.000    20294998.878    83104643.911        1278.533          42.000  
G18  20495136.635   107702671.271       -1166.053          46.000    20495133.008    83924161.048        -908.496          45.000  
G23  21636469.532   113700427.636       -1585.461          45.000    21636466.602    88597737.938       -1235.429          42.000  
G24  21898397.549   115076875.700       -2682.373          46.000    21898395.351    89670299.122       -2090.059          42.000  
G27  24699992.493   129799343.801       -1761.632          41.000    24699994.566   101142342.263       -1372.624          37.000  
G29  23503412.597   123511256.920        3392.400          45.000    23503411.793    96242529.701        2643.755          37.000  
R 2  23891346.387   127488821.913        3269.227          41.000    23891352.123    99157971.811        2542.544          38.000  
R 3  20276376.569   108541030.698        1944.333          49.000    20276378.195    84420799.029        1512.397          48.000  
R 4  20186829.748   108099564.220        -932.565          50.000    20186831.696    84077439.943        -725.227          47.000  
R 5  23611138.933   126215067.734       -2897.697          44.000    23611148.314    98167326.447       -2253.864          40.000  
R12  23881816.748   127572389.490        -500.389          41.000    23881823.413    99222965.553        -389.228          40.000  
R17  22691611.644   121427382.053        4358.092          51.000    22691613.413    94443498.941        3389.431          45.000  
R18  19531311.074   104259466.920        1872.964          50.000    19531313.200    81090690.934        1456.605          46.000  
R19  19939467.166   106662694.475       -1882.827          37.000    19939470.275    82959901.174       -1464.616          44.000  
E 3  24512127.646   128812128.238       -1691.677          46.000    24512129.611    98700187.461       -1296.225          43.000  
E 5  23418913.490   123067218.301         792.529          46.000    23418914.580    94298258.347         607.244          44.000  
E 9  26837101.622   141029937.971        2554.372          40.000    26837105.125   108061904.373        1957.345          40.000  
E15  25612432.587   134594242.457       -2349.578          44.000    25612435.625   103130661.979       -1800.385          41.000  
C14  25254663.155   131507661.099        2391.909          37.000    25254659.403   101690065.250        1849.246          42.000  
C24  25630032.717   133462302.876        -869.406          41.000                                                                  
C25  25506428.843   132818699.050       -2485.292          42.000                                                                  
C27  22505387.531   117191460.271        -436.592          46.000                                                                  
C28  22723665.455   118328075.510        2324.116          47.000                                                                  
C30  25825843.115   134481943.322       -2647.571          42.000                                                                  
C32  25220925.975   131331928.819       -2086.771          41.000                                                                  
> 2023  8  2 19 31  9.6000000  0 28                     
G 5  23661928.003   124344273.909        2430.314          41.000    23661927.485    96891643.992        1893.569          39.000  
G10  24363582.887   128031499.729       -2314.374          42.000    24363584.602    99764771.412       -1803.342          39.000  
G13  22491401.428   118193125.056        3166.340          40.000                                                                  
G15  20295065.262   106651288.705        1641.007          46.000    20295061.366    83104899.476        1278.684          43.000  
G18  20495092.230   107702437.888       -1165.779          46.000    20495088.532    83923979.173        -908.496          45.000  
G23  21636409.189   113700110.340       -1585.478          45.000    21636406.204    88597490.694       -1235.350          42.000  
G24  21898295.427   115076339.089       -2681.970          46.000    21898293.283    89669880.963       -2089.864          42.000  
G27  24699925.395   129798991.336       -1761.196          41.000    24699927.217   101142067.626       -1372.233          38.000  
G29  23503541.844   123511935.215        3392.635          45.000    23503540.414    96243058.218        2643.716          37.000  
R 2  23891468.808   127489475.552        3269.238          41.000    23891474.687    99158480.239        2542.695          38.000  
R 3  20276449.081   108541419.401        1944.501          49.000    20276450.850    84421101.356        1512.420          48.000  
R 4  20186794.904   108099377.506        -932.414          50.000    20186796.709    84077294.712        -725.305          47.000  
R 5  23611030.539   126214488.025       -2897.456          44.000    23611039.849    98166875.551       -2253.568          40.000  
R12  23881797.950   127572289.246        -500.154          42.000    23881804.687    99222887.544        -389.138          40.000  
R17  22691774.627   121428253.451        4358.104          51.000    22691776.289    94444176.709        3389.817          45.000  
R18  19531381.245   104259841.322        1873.238          50.000    19531383.318    81090982.142        1456.946          46.000  
R19  19939396.655   106662317.682       -1882.788          37.000    19939399.889    82959608.116       -1464.555          43.000  
E 3  24512063.246   128811789.706       -1691.643          46.000    24512065.211    98699928.081       -1296.085          43.000  
E 5  23418943.617   123067376.620         792.602          46.000    23418944.707    94298379.657         607.378          44.000  
E 9  26837198.848   141030448.700        2554.579          40.000    26837202.296   108062295.683        1957.334          40.000  
E15  25612343.117   134593772.320       -2349.661          44.000    25612346.191   103130301.758       -1800.346          41.000  
C14  25254754.984   131508139.198        2391.652          37.000    25254751.196   101690434.976        1849.330          43.000  
C24  25629999.338   133462128.840        -869.048          41.000                                                                  
C25  25506333.316   132818201.766       -2485.325          42.000                                                                  
C27  22505370.662   117191372.747        -436.503          46.000                                                                  
C28  22723754.675   118328540.163        2324.368          47.000                                                                  
C30  25825741.386   134481413.657       -2647.185          42.000                                                                  
C32  25220845.690   131331511.234       -2086.949          40.000                                                                  
> 2023  8  2 19 31  9.8000000  0 28                     
G 5  23662020.421   124344759.672        2429.565          41.000    23662019.939    96892022.517        1893.362          39.000  
G10  24363494.739   128031036.681       -2314.396          42.000    24363496.490    99764410.564       -1803.487          40.000  
G13  22491521.919   118193758.116        3166.229          40.000                                                                  
G15  20295127.732   106651616.665        1640.745          46.000    20295123.711    83105155.029        1278.421          42.000  
G18  20495047.844   107702204.491       -1166.070          46.000    20495044.216    83923797.308        -908.646          45.000  
G23  21636348.809   113699792.991       -1585.785          45.000    21636345.968    88597243.423       -1235.714          43.000  
G24  21898193.323   115075802.452       -2682.166          45.000    21898191.269    89669462.827       -2089.919          42.000  
G27  24699858.314   129798638.873       -1761.364          41.000    24699860.280   101141792.937       -1372.574          38.000  
G29  23503671.037   123512613.551        3392.808          45.000    23503668.857    96243586.743        2643.208          37.000  
R 2  23891591.318   127490129.143        3268.864          41.000    23891597.215    99158988.587        2542.500          39.000  
R 3  20276521.719   108541808.080        1944.233          49.000    20276523.416    84421403.650        1512.162          48.000  
R 4  20186760.077   108099190.793        -932.665          50.000    20186761.775    84077149.497        -725.478          47.000  
R 5  23610922.128   126213908.241       -2897.881          44.000    23610931.402    98166424.636       -2253.758          40.000  
R12  23881779.170   127572188.982        -500.232          42.000    23881785.996    99222809.579        -389.300          41.000  
R17  22691937.629   121429124.861        4357.958          50.000    22691939.255    94444854.454        3389.386          46.000  
R18  19531451.471   104260215.751        1873.154          50.000    19531453.508    81091273.370        1456.868          46.000  
R19  19939326.036   106661940.913       -1883.128          37.000    19939329.610    82959315.089       -1464.471          43.000  
E 3  24511998.846   128811451.176       -1691.610          46.000    24512000.811    98699668.695       -1296.157          43.000  
E 5  23418973.726   123067534.931         792.580          46.000    23418974.834    94298500.962         607.255          44.000  
E 9  26837296.019   141030959.376        2554.411          40.000    26837299.468   108062687.003        1957.295          40.000  
E15  25612253.683   134593302.175       -2349.762          44.000    25612256.702   103129941.519       -1800.536          41.000  
C14  25254846.849   131508617.328        2391.417          37.000    25254843.096   101690804.694        1849.314          43.000  
C24  25629965.958   133461954.839        -868.953          41.000                                                                  
C25  25506237.841   132817704.543       -2485.107          42.000                                                                  
C27  22505353.794   117191285.267        -436.497          46.000                                                                  
C28  22723843.895   118329004.811        2324.155          47.000                                                                  
C30  25825639.658   134480883.957       -2647.537          42.000                                                                  
C32  25220765.386   131331093.649       -2087.090          40.000                                                                  
> 2023  8  2 19 31 10.0000000  0 28                     
G 5  23662112.840   124345245.367        2429.906          42.000    23662112.197    96892401.002        1893.429          39.000  
G10  24363406.591   128030573.502       -2314.519          42.000    24363408.503    99764049.659       -1803.398          40.000  
G13  22491642.410   118194391.098        3166.352          40.000                                                                  
G15  20295190.095   106651944.549        1640.795          46.000    20295186.038    83105410.525        1278.606          43.000  
G18  20495003.439   107701971.020       -1165.986          46.000    20494999.758    83923615.383        -908.574          45.000  
G23  21636288.394   113699475.604       -1585.612          45.000    21636285.535    88596996.090       -1235.552          43.000  
G24  21898091.202   115075265.730       -2682.250          45.000    21898089.236    89669044.613       -2089.958          42.000  
G27  24699791.252   129798286.284       -1761.654          41.000    24699793.164   101141518.222       -1372.523          38.000  
G29  23503800.230   123513291.790        3392.674          45.000    23503797.442    96244115.328        2643.900          37.000  
R 2  23891713.775   127490782.653        3269.020          41.000    23891719.814    99159496.871        2542.376          39.000  
R 3  20276594.303   108542196.690        1944.439          49.000    20276595.965    84421705.898        1512.380          48.000  
R 4  20186725.161   108099004.031        -932.487          50.000    20186726.841    84077004.226        -725.277          47.000  
R 5  23610813.663   126213328.410       -2897.791          44.000    23610822.794    98165973.666       -2253.797          40.000  
R12  23881760.371   127572088.676        -499.897          41.000    23881767.197    99222731.549        -388.892          41.000  
R17  22692100.541   121429996.202        4358.098          50.000    22692102.149    94445532.180        3389.660          46.000  
R18  19531521.732   104260590.135        1873.367          50.000    19531523.679    81091564.553        1457.008          46.000  
R19  19939255.364   106661564.094       -1882.671          37.000    19939259.260    82959022.005       -1464.281          44.000  
E 3  24511934.446   128811112.576       -1691.637          46.000    24511936.340    98699409.233       -1296.269          43.000  
E 5  23419003.800   123067693.162         792.558          46.000    23419004.943    94298622.188         607.155          44.000  
E 9  26837393.173   141031469.979        2554.327          40.000    26837396.622   108063078.271        1957.424          40.000  
E15  25612164.212   134592831.959       -2349.773          44.000    25612167.250   103129581.228       -1800.441          41.000  
C14  25254938.642   131509095.369        2391.641          37.000    25254934.907   101691174.319        1849.112          42.000  
C24  25629932.490   133461780.757        -868.869          41.000                                                                  
C25  25506142.367   132817207.206       -2485.269          42.000                                                                  
C27  22505336.926   117191197.676        -436.570          46.000                                                                  
C28  22723933.079   118329469.403        2324.329          47.000                                                                  
C30  25825537.948   134480354.169       -2647.593          42.000                                                                  
C32  25220685.119   131330676.052       -2086.603          40.000                                                                  
> 2023  8  2 19 31 10.2000000  0 28                     
G 5  23662205.223   124345731.188        2430.074          41.000    23662205.008    96892779.534        1893.429          39.000  
G10  24363318.461   128030110.417       -2314.665          43.000    24363320.516    99763688.863       -1803.325          40.000  
G13  22491762.955   118195024.175        3166.134          40.000                                                                  
G15  20295252.458   106652272.561        1640.829          46.000    20295248.401    83105666.108        1278.466          42.000  
G18  20494959.053   107701737.676       -1165.841          46.000    20494955.318    83923433.560        -908.378          45.000  
G23  21636228.015   113699158.285       -1585.891          45.000    21636225.388    88596748.844       -1235.624          43.000  
G24  21897989.116   115074729.169       -2681.981          45.000    21897987.365    89668626.523       -2089.846          42.000  
G27  24699724.207   129797933.845       -1761.364          41.000    24699726.101   101141243.608       -1372.238          38.000  
G29  23503929.387   123513970.126        3392.540          45.000    23503926.135    96244643.853        2643.392          36.000  
R 2  23891836.320   127491436.271        3269.037          41.000    23891842.414    99160005.273        2542.572          39.000  
R 3  20276666.922   108542585.399        1944.400          49.000    20276668.620    84422008.218        1512.296          47.000  
R 4  20186690.424   108098817.341        -932.626          50.000    20186691.925    84076859.048        -725.199          47.000  
R 5  23610705.287   126212748.713       -2897.669          44.000    23610714.472    98165522.774       -2253.909          40.000  
R12  23881741.680   127571988.515        -499.880          41.000    23881748.614    99222653.651        -388.708          41.000  
R17  22692263.524   121430867.678        4358.344          50.000    22692264.971    94446209.985        3389.822          45.000  
R18  19531591.868   104260964.621        1873.417          49.000    19531593.780    81091855.829        1457.119          46.000  
R19  19939185.139   106661187.378       -1882.721          37.000    19939188.999    82958729.000       -1464.388          43.000  
E 3  24511870.064   128810774.096       -1691.710          46.000    24511871.922    98699149.876       -1296.186          43.000  
E 5  23419033.963   123067851.502         792.485          46.000    23419035.071    94298743.530         607.266          44.000  
E 9  26837490.363   141031980.708        2554.305          40.000    26837493.794   108063469.591        1957.306          40.000  
E15  25612074.742   134592361.842       -2349.846          44.000    25612077.762   103129221.000       -1800.458          41.000  
C14  25255030.489   131509573.502        2391.479          37.000    25255026.682   101691544.055        1849.325          43.000  
C24  25629899.075   133461606.744        -869.182          40.000                                                                  
C25  25506046.911   132816709.998       -2485.359          42.000                                                                  
C27  22505320.111   117191110.222        -436.346          46.000                                                                  
C28  22724022.281   118329934.117        2324.440          47.000                                                                  
C30  25825436.255   134479824.481       -2647.761          42.000                                                                  
C32  25220604.869   131330258.496       -2086.994          40.000                                                                  
> 2023  8  2 19 31 10.4000000  0 28                     
G 5  23662297.641   124346216.825        2429.431          41.000    23662297.284    96893158.002        1893.452          39.000  
G10  24363230.313   128029647.208       -2314.659          42.000    24363232.564    99763327.880       -1803.755          40.000  
G13  22491883.392   118195657.145        3166.240          39.000                                                                  
G15  20295314.874   106652600.457        1640.929          46.000    20295310.782    83105921.627        1278.645          43.000  
G18  20494914.684   107701504.223       -1165.807          46.000    20494910.949    83923251.633        -908.518          45.000  
G23  21636167.653   113698840.857       -1585.752          45.000    21636165.062    88596501.468       -1235.865          43.000  
G24  21897887.066   115074192.508       -2681.864          46.000    21897885.422    89668208.341       -2089.836          42.000  
G27  24699657.109   129797581.307       -1761.341          41.000    24699659.075   101140968.871       -1372.629          38.000  
G29  23504058.526   123514648.368        3392.618          45.000    23504054.613    96245172.386        2643.677          36.000  
R 2  23891958.795   127492089.755        3268.758          41.000    23891965.120    99160513.510        2542.304          39.000  
R 3  20276739.560   108542973.974        1944.283          49.000    20276741.186    84422310.443        1512.129          48.000  
R 4  20186655.543   108098630.559        -932.514          50.000    20186656.955    84076713.759        -725.433          47.000  
R 5  23610596.858   126212168.855       -2897.870          44.000    23610605.917    98165071.745       -2254.194          40.000  
R12  23881722.989   127571888.203        -500.226          41.000    23881729.833    99222575.633        -389.082          41.000  
R17  22692426.418   121431739.025        4358.238          50.000    22692427.865    94446887.681        3389.554          46.000  
R18  19531661.896   104261339.041        1873.590          49.000    19531663.951    81092147.033        1457.181          46.000  
R19  19939114.699   106660810.594       -1882.575          37.000    19939118.720    82958435.959       -1464.170          44.000  
E 3  24511805.610   128810435.511       -1691.548          46.000    24511807.504    98698890.442       -1296.057          43.000  
E 5  23419064.072   123068009.739         792.558          46.000    23419065.198    94298864.767         607.350          44.000  
E 9  26837587.517   141032491.258        2554.188          40.000    26837590.948   108063860.794        1957.155          40.000  
E15  25611985.236   134591891.568       -2349.975          44.000    25611988.310   103128860.671       -1800.575          41.000  
C14  25255122.371   131510051.473        2391.228          38.000    25255118.529   101691913.664        1849.124          43.000  
C24  25629865.713   133461432.676        -868.824          40.000                                                                  
C25  25505951.455   132816212.667       -2485.414          42.000                                                                  
C27  22505303.314   117191022.649        -436.391          46.000                                                                  
C28  22724111.501   118330398.715        2324.558          47.000                                                                  
C30  25825334.509   134479294.711       -2647.425          42.000                                                                  
C32  25220524.547   131329840.838       -2086.933          40.000                                                                  
> 2023  8  2 19 31 10.6000000  0 28                     
G 5  23662390.203   124346702.937        2429.789          41.000    23662389.453    96893536.757        1893.368          39.000  
G10  24363142.219   128029184.370       -2314.905          42.000    24363144.685    99762967.247       -1803.622          40.000  
G13  22492003.900   118196290.519        3166.279          40.000                                                                  
G15  20295377.344   106652928.783        1640.990          46.000    20295373.288    83106177.461        1278.712          42.000  
G18  20494870.297   107701271.207       -1165.673          46.000    20494866.402    83923070.058        -908.401          45.000  
G23  21636107.381   113698523.819       -1585.729          45.000    21636104.879    88596254.428       -1235.730          43.000  
G24  21897785.052   115073656.255       -2681.836          46.000    21897783.337    89667790.472       -2089.802          42.000  
G27  24699590.118   129797229.135       -1761.498          41.000    24699592.102   101140694.417       -1372.775          38.000  
G29  23504187.720   123515326.968        3392.423          44.000    23504183.127    96245701.215        2643.789          36.000  
R 2  23892081.448   127492743.605        3268.669          41.000    23892087.720    99161022.039        2542.002          39.000  
R 3  20276812.233   108543362.976        1944.395          49.000    20276813.913    84422612.986        1512.201          47.000  
R 4  20186620.752   108098444.201        -932.302          50.000    20186622.110    84076568.805        -725.383          47.000  
R 5  23610488.554   126211589.439       -2897.713          44.000    23610497.470    98164621.079       -2253.763          40.000  
R12  23881704.245   127571788.347        -499.757          42.000    23881711.160    99222497.955        -388.842          40.000  
R17  22692589.348   121432610.805        4358.238          50.000    22692590.795    94447565.713        3389.549          46.000  
R18  19531732.068   104261713.893        1873.691          49.000    19531734.176    81092438.577        1457.254          46.000  
R19  19939044.224   106660434.211       -1882.452          37.000    19939048.405    82958143.198       -1464.242          43.000  
E 3  24511741.246   128810097.321       -1691.509          46.000    24511743.176    98698631.317       -1296.029          43.000  
E 5  23419094.289   123068168.378         792.658          46.000    23419095.396    94298986.336         607.334          44.000  
E 9  26837684.724   141033002.251        2554.244          40.000    26837688.084   108064252.325        1957.177          40.000  
E15  25611895.838   134591421.710       -2349.924          44.000    25611898.929   103128500.650       -1800.580          41.000  
C14  25255214.325   131510529.874        2391.551          38.000    25255210.358   101692283.601        1849.196          43.000  
C24  25629832.316   133461259.007        -868.780          40.000                                                                  
C25  25505855.998   132815715.732       -2485.280          42.000                                                                  
C27  22505286.606   117190935.485        -436.469          46.000                                                                  
C28  22724200.811   118330863.723        2324.446          47.000                                                                  
C30  25825232.816   134478765.279       -2647.683          42.000                                                                  
C32  25220444.333   131329423.562       -2086.799          39.000                                                                  
> 2023  8  2 19 31 10.8000000  0 28                     
G 5  23662482.604   124347188.641        2429.677          41.000    23662481.692    96893915.248        1893.267          39.000  
G10  24363054.053   128028721.193       -2314.748          42.000    24363056.608    99762606.328       -1803.660          39.000  
G13  22492124.320   118196923.538        3166.229          40.000                                                                  
G15  20295439.761   106653256.737        1640.834          46.000    20295435.883    83106433.009        1278.555          42.000  
G18  20494825.928   107701037.801       -1165.779          46.000    20494821.997    83922888.194        -908.412          45.000  
G23  21636047.001   113698206.417       -1585.746          45.000    21636044.446    88596007.097       -1235.753          42.000  
G24  21897682.931   115073119.609       -2682.082          45.000    21897681.162    89667372.341       -2089.813          42.000  
G27  24699523.074   129796876.649       -1761.196          41.000    24699525.182   101140419.803       -1372.138          37.000  
G29  23504316.877   123516005.236        3392.423          44.000    23504312.142    96246229.674        2643.286          36.000  
R 2  23892203.707   127493397.074        3268.283          40.000    23892210.247    99161530.337        2542.354          39.000  
R 3  20276884.817   108543751.581        1944.233          49.000    20276886.479    84422915.236        1512.090          47.000  
R 4  20186585.926   108098257.487        -932.431          50.000    20186587.159    84076423.580        -725.299          47.000  
R 5  23610380.142   126211009.619       -2897.954          43.000    23610389.041    98164170.145       -2253.814          39.000  
R12  23881685.429   127571688.124        -499.846          41.000    23881692.398    99222419.988        -388.904          41.000  
R17  22692752.206   121433482.164        4357.902          49.000    22692753.725    94448243.446        3389.448          46.000  
R18  19531802.097   104262088.391        1873.702          49.000    19531804.330    81092729.851        1457.276          46.000  
R19  19938973.820   106660057.481       -1882.520          37.000    19938978.019    82957850.202       -1464.030          43.000  
E 3  24511676.846   128809758.762       -1691.559          46.000    24511678.740    98698371.899       -1296.102          43.000  
E 5  23419124.434   123068326.651         792.585          46.000    23419125.488    94299107.605         607.205          44.000  
E 9  26837781.932   141033512.842        2554.154          40.000    26837785.220   108064643.535        1956.976          40.000  
E15  25611806.367   134590951.511       -2349.840          44.000    25611809.441   103128140.345       -1800.614          41.000  
C14  25255306.100   131511007.877        2391.188          38.000    25255302.151   101692653.223        1848.978          43.000  
C24  25629798.883   133461084.965        -869.015          41.000                                                                  
C25  25505760.471   132815218.398       -2485.683          42.000                                                                  
C27  22505269.809   117190848.005        -436.190          46.000                                                                  
C28  22724290.049   118331328.344        2324.217          47.000                                                                  
C30  25825131.070   134478235.532       -2647.542          42.000                                                                  
C32  25220363.869   131329005.927       -2086.967          39.000                                                                  
> 2023  8  2 19 31 11.0000000  0 28                     
G 5  23662575.058   124347674.577        2429.878          41.000    23662574.004    96894293.879        1893.630          39.000  
G10  24362965.887   128028258.255       -2314.357          42.000    24362968.710    99762245.586       -1803.370          39.000  
G13  22492244.846   118197556.742        3166.380          40.000                                                                  
G15  20295502.213   106653584.929        1641.287          46.000    20295498.353    83106688.762        1279.064          42.000  
G18  20494781.560   107700804.650       -1165.422          46.000    20494777.628    83922706.527        -907.959          45.000  
G23  21635986.693   113697889.233       -1585.539          45.000    21635984.085    88595759.977       -1235.401          42.000  
G24  21897580.898   115072583.227       -2681.691          46.000    21897579.147    89666954.395       -2089.310          41.000  
G27  24699456.065   129796524.377       -1761.068          41.000    24699458.209   101140145.310       -1372.216          37.000  
G29  23504446.070   123516683.695        3392.646          44.000    23504441.227    96246758.394        2643.895          35.000  
R 2  23892326.235   127494050.817        3268.814          40.000    23892332.811    99162038.826        2542.807          38.000  
R 3  20276957.419   108544140.448        1944.730          49.000    20276959.081    84423217.740        1512.799          47.000  
R 4  20186551.135   108098071.003        -932.057          50.000    20186552.296    84076278.593        -724.561          47.000  
R 5  23610271.713   126210430.054       -2897.456          44.000    23610280.487    98163719.421       -2253.361          39.000  
R12  23881666.738   127571588.209        -499.304          41.000    23881673.707    99222342.325        -388.037          40.000  
R17  22692915.154   121434353.777        4358.338          49.000    22692916.583    94448921.396        3389.940          45.000  
R18  19531872.197   104262463.133        1874.132          48.000    19531874.538    81093021.356        1457.885          46.000  
R19  19938903.291   106659681.052       -1881.899          37.000    19938907.687    82957557.461       -1463.275          43.000  
E 3  24511612.446   128809420.406       -1691.548          46.000    24511614.340    98698112.626       -1296.135          43.000  
E 5  23419154.579   123068485.149         792.703          46.000    23419155.633    94299229.054         607.473          44.000  
E 9  26837879.139   141034023.653        2554.165          40.000    26837882.409   108065034.956        1957.278          40.000  
E15  25611716.933   134590481.518       -2349.689          44.000    25611719.988   103127780.214       -1800.519          41.000  
C14  25255397.858   131511486.110        2391.395          38.000    25255394.016   101693022.982        1848.839          42.000  
C24  25629765.486   133460911.130        -868.875          41.000                                                                  
C25  25505664.978   132814721.312       -2485.247          42.000                                                                  
C27  22505253.030   117190760.757        -435.871          46.000                                                                  
C28  22724379.340   118331793.236        2324.747          47.000                                                                  
C30  25825029.359   134477706.056       -2647.151          42.000                                                                  
C32  25220283.548   131328588.482       -2086.888          39.000                                                                  
> 2023  8  2 19 31 11.2000000  0 28                     
G 5  23662667.548   124348160.870        2429.716          41.000    23662666.333    96894672.802        1893.552          38.000  
G10  24362877.864   128027795.633       -2314.648          42.000    24362880.884    99761885.117       -1803.264          38.000  
G13  22492365.355   118198190.366        3166.570          40.000                                                                  
G15  20295564.737   106653913.523        1641.415          46.000    20295561.020    83106944.804        1279.125          41.000  
G18  20494737.191   107700571.925       -1165.036          46.000    20494733.420    83922525.160        -907.959          44.000  
G23  21635926.439   113697572.430       -1585.539          45.000    21635923.848    88595513.106       -1235.479          42.000  
G24  21897478.848   115072047.230       -2681.378          46.000    21897477.169    89666536.672       -2089.696          41.000  
G27  24699389.145   129796172.563       -1760.598          41.000    24699391.218   101139871.139       -1371.998          36.000  
G29  23504575.299   123517362.507        3392.618          44.000    23504570.081    96247287.372        2643.811          35.000  
R 2  23892448.870   127494704.890        3268.853          41.000    23892455.142    99162547.497        2542.421          38.000  
R 3  20277030.128   108544529.683        1944.613          49.000    20277031.844    84423520.453        1512.548          47.000  
R 4  20186516.433   108097884.905        -931.956          50.000    20186517.523    84076133.837        -724.713          47.000  
R 5  23610163.427   126209850.840       -2897.808          43.000    23610172.236    98163268.884       -2253.758          39.000  
R12  23881648.172   127571488.654        -499.120          41.000    23881655.051    99222264.858        -388.367          40.000  
R17  22693078.137   121435225.713        4358.003          49.000    22693079.566    94449599.556        3389.710          45.000  
R18  19531942.386   104262838.289        1874.440          48.000    19531944.799    81093313.119        1457.902          46.000  
R19  19938832.816   106659304.982       -1881.961          37.000    19938837.354    82957264.937       -1463.448          43.000  
E 3  24511548.135   128809082.478       -1691.190          46.000    24511550.029    98697853.703       -1295.817          43.000  
E 5  23419184.813   123068644.053         792.999          46.000    23419185.849    94299350.806         607.652          44.000  
E 9  26837976.472   141034534.867        2554.489          40.000    26837979.724   108065426.667        1957.222          40.000  
E15  25611627.552   134590011.910       -2349.544          44.000    25611630.643   103127420.395       -1800.368          41.000  
C14  25255489.758   131511964.668        2391.233          38.000    25255485.916   101693393.103        1849.459          42.000  
C24  25629732.232   133460737.716        -868.568          41.000                                                                  
C25  25505569.576   132814224.574       -2485.140          42.000                                                                  
C27  22505236.394   117190673.888        -435.782          46.000                                                                  
C28  22724468.685   118332258.479        2324.708          47.000                                                                  
C30  25824927.756   134477176.874       -2647.442          42.000                                                                  
C32  25220203.495   131328171.440       -2086.760          39.000                                                                  
> 2023  8  2 19 31 11.4000000  0 28                     
G 5  23662760.020   124348646.724        2429.515          41.000    23662758.430    96895051.366        1893.072          38.000  
G10  24362789.734   128027332.630       -2314.759          42.000    24362792.504    99761524.304       -1803.789          38.000  
G13  22492485.917   118198823.591        3166.318          40.000                                                                  
G15  20295627.189   106654241.691        1640.996          46.000    20295623.293    83107200.492        1278.634          42.000  
G18  20494692.822   107700338.689       -1165.964          46.000    20494689.123    83922343.455        -908.356          44.000  
G23  21635866.078   113697255.201       -1586.009          45.000    21635863.522    88595265.929       -1235.714          41.000  
G24  21897376.745   115071510.777       -2682.088          45.000    21897375.137    89666118.674       -2089.891          41.000  
G27  24699322.154   129795820.309       -1761.023          41.000    24699324.048   101139596.699       -1371.819          37.000  
G29  23504704.367   123518040.931        3392.372          44.000    23504698.791    96247815.971        2643.196          35.000  
R 2  23892571.577   127495358.499        3268.071          41.000    23892577.581    99163055.911        2542.466          38.000  
R 3  20277102.748   108544918.488        1944.132          49.000    20277104.463    84423822.866        1512.330          47.000  
R 4  20186481.642   108097698.407        -932.392          50.000    20186482.714    84075988.761        -725.148          47.000  
R 5  23610055.069   126209271.263       -2897.775          44.000    23610063.771    98162818.097       -2253.646          39.000  
R12  23881629.445   127571388.688        -499.595          41.000    23881636.342    99222187.135        -388.468          40.000  
R17  22693241.067   121436097.287        4358.104          49.000    22693242.460    94450277.447        3389.761          45.000  
R18  19532012.504   104263213.022        1873.942          48.000    19532015.006    81093604.583        1457.622          46.000  
R19  19938762.519   106658928.548       -1881.894          37.000    19938766.879    82956972.131       -1463.818          43.000  
E 3  24511483.771   128808744.089       -1691.431          46.000    24511485.647    98697594.424       -1296.253          43.000  
E 5  23419214.994   123068802.504         792.697          46.000    23419215.994    94299472.213         607.155          44.000  
E 9  26838073.661   141035045.622        2554.266          40.000    26838076.931   108065818.025        1956.904          40.000  
E15  25611538.100   134589541.878       -2349.757          44.000    25611541.173   103127060.239       -1800.726          41.000  
C14  25255581.533   131512442.836        2391.071          38.000    25255577.763   101693762.835        1848.855          42.000  
C24  25629698.870   133460563.883        -868.931          41.000                                                                  
C25  25505474.048   132813727.383       -2485.722          42.000                                                                  
C27  22505219.651   117190586.611        -436.201          46.000                                                                  
C28  22724557.959   118332723.301        2324.278          47.000                                                                  
C30  25824826.010   134476647.351       -2647.325          42.000                                                                  
C32  25220123.406   131327753.974       -2087.207          39.000                                                                  
> 2023  8  2 19 31 11.6000000  0 28                     
G 5  23662852.510   124349132.601        2430.057          42.000    23662851.009    96895429.986        1893.457          39.000  
G10  24362701.640   128026869.592       -2314.563          42.000    24362704.338    99761163.488       -1803.666          38.000  
G13  22492606.462   118199456.780        3166.480          40.000                                                                  
G15  20295689.677   106654569.871        1641.454          46.000    20295685.674    83107456.230        1279.058          42.000  
G18  20494648.418   107700105.568       -1165.125          46.000    20494644.897    83922161.772        -908.015          45.000  
G23  21635805.716   113696937.973       -1585.651          45.000    21635803.089    88595018.756       -1235.395          42.000  
G24  21897274.659   115070974.375       -2681.495          45.000    21897272.962    89665700.714       -2089.355          41.000  
G27  24699255.110   129795468.093       -1760.542          41.000    24699257.075   101139322.195       -1372.026          37.000  
G29  23504833.452   123518719.352        3392.646          44.000    23504827.216    96248344.636        2643.677          36.000  
R 2  23892693.819   127496012.126        3268.870          41.000    23892700.109    99163564.273        2542.321          38.000  
R 3  20277175.332   108545307.338        1944.708          49.000    20277177.172    84424125.286        1512.536          48.000  
R 4  20186446.779   108097511.899        -931.933          50.000    20186447.995    84075843.730        -724.628          47.000  
R 5  23609946.676   126208691.658       -2897.188          44.000    23609955.521    98162367.296       -2253.423          40.000  
R12  23881610.736   127571288.728        -499.333          41.000    23881617.580    99222109.406        -388.211          41.000  
R17  22693403.943   121436968.838        4358.377          49.000    22693405.497    94450955.313        3389.822          46.000  
R18  19532082.694   104263587.794        1874.467          49.000    19532085.303    81093896.088        1457.974          46.000  
R19  19938692.061   106658552.116       -1881.503          37.000    19938696.511    82956679.354       -1463.438          43.000  
E 3  24511419.389   128808405.723       -1691.431          46.000    24511421.265    98697335.142       -1295.996          43.000  
E 5  23419245.103   123068960.973         792.697          46.000    23419246.139    94299593.646         607.574          44.000  
E 9  26838170.851   141035556.395        2554.249          40.000    26838174.103   108066209.374        1957.155          40.000  
E15  25611448.647   134589071.839       -2349.784          44.000    25611451.685   103126700.104       -1800.318          41.000  
C14  25255673.345   131512921.013        2391.412          38.000    25255669.592   101694132.565        1849.101          43.000  
C24  25629665.473   133460390.083        -868.422          41.000                                                                  
C25  25505378.556   132813230.189       -2485.392          42.000                                                                  
C27  22505202.908   117190499.357        -435.732          46.000                                                                  
C28  22724647.215   118333188.161        2324.843          47.000                                                                  
C30  25824724.335   134476117.834       -2646.950          42.000                                                                  
C32  25220043.174   131327336.508       -2086.972          39.000                                                                  
> 2023  8  2 19 31 11.8000000  0 28                     
G 5  23662944.983   124349618.329        2429.772          41.000    23662943.750    96895808.475        1893.239          39.000  
G10  24362613.564   128026406.450       -2314.603          43.000    24362616.119    99760802.582       -1803.739          39.000  
G13  22492727.006   118200089.876        3166.704          40.000                                                                  
G15  20295752.147   106654897.930        1641.443          46.000    20295748.073    83107711.863        1279.142          42.000  
G18  20494604.031   107699872.314       -1165.008          46.000    20494600.386    83921980.030        -907.825          45.000  
G23  21635745.301   113696620.650       -1585.500          45.000    21635742.442    88594771.460       -1235.513          42.000  
G24  21897172.502   115070437.849       -2681.406          45.000    21897170.697    89665282.621       -2089.690          42.000  
G27  24699188.047   129795115.722       -1760.777          41.000    24699190.281   101139047.633       -1371.937          38.000  
G29  23504962.485   123519397.632        3392.512          43.000    23504956.213    96248873.159        2643.515          36.000  
R 2  23892816.311   127496665.618        3268.652          41.000    23892822.672    99164072.568        2542.521          39.000  
R 3  20277247.987   108545696.029        1944.752          49.000    20277249.703    84424427.615        1512.481          48.000  
R 4  20186411.935   108097325.302        -931.839          50.000    20186413.150    84075698.567        -724.986          47.000  
R 5  23609838.121   126208111.904       -2897.534          44.000    23609847.127    98161916.342       -2253.875          40.000  
R12  23881591.956   127571188.741        -498.897          42.000    23881598.746    99222031.611        -387.942          40.000  
R17  22693566.837   121437840.244        4358.076          49.000    22693568.356    94451633.064        3389.588          46.000  
R18  19532152.883   104263962.468        1874.613          49.000    19532155.421    81094187.485        1458.008          46.000  
R19  19938621.622   106658175.583       -1881.318          37.000    19938626.000    82956386.502       -1463.253          43.000  
E 3  24511354.989   128808067.226       -1691.358          46.000    24511356.865    98697075.792       -1295.862          43.000  
E 5  23419275.230   123069119.336         792.893          46.000    23419276.285    94299714.989         607.658          44.000  
E 9  26838268.076   141036067.021        2554.266          40.000    26838271.275   108066600.644        1957.166          40.000  
E15  25611359.159   134588601.711       -2349.606          44.000    25611362.215   103126339.864       -1800.279          41.000  
C14  25255765.156   131513399.037        2391.166          38.000    25255761.332   101694502.232        1849.219          42.000  
C24  25629632.094   133460216.126        -868.528          41.000                                                                  
C25  25505283.100   132812732.896       -2485.269          42.000                                                                  
C27  22505186.093   117190412.005        -435.575          46.000                                                                  
C28  22724736.471   118333652.910        2324.932          47.000                                                                  
C30  25824622.660   134475588.151       -2647.414          42.000                                                                  
C32  25219962.942   131326918.906       -2086.910          39.000                                                                  
> 2023  8  2 19 31 12.0000000  0 28                     
G 5  23663037.401   124350104.171        2429.549          41.000    23663036.186    96896187.039        1893.379          39.000  
G10  24362525.451   128025943.395       -2314.603          43.000    24362527.828    99760441.764       -1803.750          39.000  
G13  22492847.551   118200723.056        3166.536          40.000                                                                  
G15  20295814.617   106655226.125        1641.577          46.000    20295810.561    83107967.590        1278.963          43.000  
G18  20494559.626   107699639.126       -1165.276          46.000    20494555.945    83921798.326        -908.010          45.000  
G23  21635684.939   113696303.381       -1585.796          45.000    21635681.866    88594524.257       -1235.540          42.000  
G24  21897070.470   115069901.406       -2681.713          45.000    21897068.701    89664864.636       -2089.444          42.000  
G27  24699120.985   129794763.506       -1760.352          41.000    24699122.968   101138773.175       -1371.903          38.000  
G29  23505091.463   123520075.988        3392.266          43.000    23505085.459    96249401.755        2643.504          37.000  
R 2  23892938.821   127497319.227        3268.545          41.000    23892945.075    99164580.893        2542.164          39.000  
R 3  20277320.661   108546084.825        1944.663          49.000    20277322.305    84424729.972        1512.230          48.000  
R 4  20186377.144   108097138.813        -931.721          50.000    20186378.395    84075553.517        -724.779          48.000  
R 5  23609729.549   126207532.279       -2897.545          44.000    23609738.716    98161465.545       -2253.579          40.000  
R12  23881573.211   127571088.828        -498.695          42.000    23881580.073    99221953.857        -388.373          41.000  
R17  22693729.749   121438711.777        4358.249          50.000    22693731.250    94452310.902        3389.582          46.000  
R18  19532223.055   104264337.269        1874.635          49.000    19532225.628    81094478.990        1458.019          46.000  
R19  19938551.307   106657799.176       -1881.402          37.000    19938555.631    82956093.708       -1463.448          43.000  
E 3  24511290.625   128807728.840       -1691.257          46.000    24511292.465    98696816.498       -1295.979          43.000  
E 5  23419305.375   123069277.791         792.971          46.000    23419306.412    94299836.411         607.579          44.000  
E 9  26838365.302   141036577.747        2554.305          40.000    26838368.518   108066991.996        1957.127          40.000  
E15  25611269.725   134588131.641       -2349.578          44.000    25611272.780   103125979.688       -1800.368          41.000  
C14  25255856.984   131513877.150        2390.993          38.000    25255853.160   101694871.929        1848.906          43.000  
C24  25629598.625   133460042.290        -868.640          41.000                                                                  
C25  25505187.661   132812235.670       -2485.548          42.000                                                                  
C27  22505169.332   117190324.740        -435.670          46.000                                                                  
C28  22724825.762   118334117.720        2324.664          47.000                                                                  
C30  25824520.950   134475058.614       -2647.040          42.000                                                                  
C32  25219882.817   131326501.452       -2086.586          40.000                                                                  
> 2023  8  2 19 31 12.2000000  0 28                     
G 5  23663129.855   124350589.922        2429.867          42.000    23663128.569    96896565.562        1893.396          39.000  
G10  24362437.321   128025480.271       -2314.508          43.000    24362439.573    99760080.898       -1803.554          39.000  
G13  22492968.059   118201356.178        3166.681          40.000                                                                  
G15  20295877.069   106655554.234        1641.616          46.000    20295872.852    83108223.251        1279.092          43.000  
G18  20494515.240   107699405.919       -1165.041          46.000    20494511.577    83921616.605        -907.797          45.000  
G23  21635624.524   113695986.073       -1585.651          45.000    21635621.451    88594277.000       -1235.440          43.000  
G24  21896968.348   115069364.938       -2681.250          45.000    21896966.669    89664446.596       -2089.310          42.000  
G27  24699053.940   129794411.210       -1760.313          41.000    24699055.977   101138498.707       -1371.467          38.000  
G29  23505220.549   123520754.351        3392.875          43.000    23505214.670    96249930.335        2643.576          37.000  
R 2  23893061.367   127497972.729        3268.529          41.000    23893067.567    99165089.182        2542.387          38.000  
R 3  20277393.316   108546473.537        1944.652          49.000    20277394.978    84425032.348        1512.676          48.000  
R 4  20186342.210   108096952.263        -931.626          50.000    20186343.586    84075408.425        -724.701          47.000  
R 5  23609620.888   126206952.606       -2897.462          43.000    23609630.483    98161014.721       -2253.210          40.000  
R12  23881554.395   127570988.835        -499.081          42.000    23881561.203    99221876.184        -387.529          40.000  
R17  22693892.625   121439583.261        4358.579          50.000    22693893.947    94452988.742        3390.046          45.000  
R18  19532293.227   104264711.996        1874.741          49.000    19532295.871    81094770.452        1458.209          46.000  
R19  19938480.796   106657422.699       -1881.408          37.000    19938485.227    82955800.928       -1462.974          43.000  
E 3  24511226.225   128807390.384       -1691.302          46.000    24511228.048    98696557.161       -1296.012          43.000  
E 5  23419335.485   123069436.166         792.870          46.000    23419336.557    94299957.744         607.429          44.000  
E 9  26838462.456   141037088.412        2554.293          40.000    26838465.690   108067383.266        1957.094          40.000  
E15  25611180.272   134587661.513       -2349.639          44.000    25611183.310   103125619.449       -1800.407          41.000  
C14  25255948.760   131514355.234        2391.541          38.000    25255944.936   101695241.576        1849.017          42.000  
C24  25629565.228   133459868.406        -868.405          41.000                                                                  
C25  25505092.187   132811738.380       -2485.492          42.000                                                                  
C27  22505152.589   117190237.425        -435.597          47.000                                                                  
C28  22724915.018   118334582.487        2324.966          47.000                                                                  
C30  25824419.222   134474529.028       -2646.934          42.000                                                                  
C32  25219802.693   131326083.875       -2087.112          40.000                                                                  
> 2023  8  2 19 31 12.4000000  0 28                     
G 5  23663222.363   124351075.790        2429.878          41.000    23663221.220    96896944.143        1893.144          39.000  
G10  24362349.174   128025017.186       -2315.100          43.000    24362351.693    99759720.084       -1803.761          40.000  
G13  22493088.550   118201989.385        3166.531          40.000                                                                  
G15  20295939.557   106655882.441        1641.482          46.000    20295935.322    83108479.021        1279.282          43.000  
G18  20494470.817   107699172.798       -1165.148          46.000    20494467.172    83921434.956        -907.886          46.000  
G23  21635564.145   113695668.815       -1585.869          45.000    21635560.892    88594029.775       -1235.747          43.000  
G24  21896866.280   115068828.568       -2681.283          45.000    21896864.708    89664028.631       -2089.500          42.000  
G27  24698986.896   129794059.027       -1760.621          41.000    24698988.915   101138224.262       -1372.070          38.000  
G29  23505349.581   123521432.736        3392.568          43.000    23505343.684    96250458.927        2643.291          37.000  
R 2  23893183.931   127498626.335        3268.355          41.000    23893190.203    99165597.500        2541.857          38.000  
R 3  20277465.936   108546862.353        1944.574          49.000    20277467.580    84425334.731        1512.235          48.000  
R 4  20186307.419   108096765.765        -932.006          50.000    20186308.723    84075263.373        -724.925          47.000  
R 5  23609512.548   126206372.996       -2897.568          44.000    23609522.018    98160563.892       -2254.026          40.000  
R12  23881535.793   127570888.994        -498.656          42.000    23881542.548    99221798.482        -388.043          40.000  
R17  22694055.519   121440454.844        4358.350          50.000    22694056.788    94453666.612        3389.733          45.000  
R18  19532363.577   104265086.876        1874.948          49.000    19532366.186    81095062.024        1458.271          46.000  
R19  19938410.356   106657046.331       -1881.335          37.000    19938414.823    82955508.196       -1463.214          43.000  
E 3  24511161.861   128807052.039       -1691.336          46.000    24511163.665    98696297.901       -1296.023          43.000  
E 5  23419365.648   123069594.641         792.758          46.000    23419366.720    94300079.181         607.540          44.000  
E 9  26838559.663   141037599.144        2554.070          40.000    26838562.915   108067774.622        1957.060          40.000  
E15  25611090.838   134587191.453       -2349.907          44.000    25611093.876   103125259.284       -1800.597          41.000  
C14  25256040.535   131514833.347        2391.021          38.000    25256036.818   101695611.301        1848.855          43.000  
C24  25629531.902   133459694.646        -868.528          41.000                                                                  
C25  25504996.713   132811241.227       -2485.308          42.000                                                                  
C27  22505135.828   117190150.216        -435.581          46.000                                                                  
C28  22725004.309   118335047.364        2324.865          47.000                                                                  
C30  25824317.547   134473999.470       -2647.470          42.000                                                                  
C32  25219722.568   131325666.386       -2087.134          40.000                                                                  
> 2023  8  2 19 31 12.6000000  0 28                     
G 5  23663314.871   124351561.826        2429.286          41.000    23663313.746    96897322.876        1893.150          39.000  
G10  24362261.061   128024554.291       -2315.083          43.000    24362263.777    99759359.376       -1804.013          40.000  
G13  22493209.184   118202622.768        3166.424          41.000                                                                  
G15  20296002.027   106656210.879        1641.538          46.000    20295997.882    83108734.922        1279.131          43.000  
G18  20494426.502   107698939.888       -1165.125          46.000    20494422.732    83921253.475        -907.758          46.000  
G23  21635503.801   113695351.780       -1585.679          44.000    21635500.602    88593782.718       -1235.714          43.000  
G24  21896764.213   115068292.403       -2681.356          45.000    21896762.801    89663610.843       -2089.277          42.000  
G27  24698919.869   129793707.031       -1760.526          41.000    24698922.013   101137949.966       -1371.808          38.000  
G29  23505478.542   123522111.348        3392.479          42.000    23505472.949    96250987.725        2643.325          37.000  
R 2  23893306.566   127499280.063        3268.278          41.000    23893312.587    99166105.964        2541.695          38.000  
R 3  20277538.627   108547251.340        1944.417          49.000    20277540.271    84425637.314        1512.453          48.000  
R 4  20186272.628   108096579.508        -931.816          50.000    20186273.879    84075118.512        -724.723          47.000  
R 5  23609403.993   126205793.603       -2897.590          44.000    23609413.518    98160113.223       -2253.948          40.000  
R12  23881517.192   127570789.395        -498.623          42.000    23881523.625    99221721.022        -387.948          40.000  
R17  22694218.484   121441326.613        4358.170          50.000    22694219.574    94454344.668        3389.716          45.000  
R18  19532433.927   104265461.969        1875.054          49.000    19532436.447    81095353.780        1458.410          46.000  
R19  19938339.970   106656670.201       -1881.223          37.000    19938344.545    82955215.649       -1463.147          43.000  
E 3  24511097.550   128806713.876       -1691.358          46.000    24511099.337    98696038.800       -1295.979          43.000  
E 5  23419395.864   123069753.324         792.853          46.000    23419396.936    94300200.770         607.485          44.000  
E 9  26838656.888   141038110.043        2553.869          40.000    26838660.176   108068166.065        1956.809          40.000  
E15  25611001.386   134586721.586       -2350.008          44.000    25611004.477   103124899.247       -1800.642          41.000  
C14  25256132.275   131515311.644        2390.942          38.000    25256128.665   101695981.137        1848.732          43.000  
C24  25629498.558   133459521.069        -868.517          41.000                                                                  
C25  25504901.328   132810744.242       -2485.554          42.000                                                                  
C27  22505119.138   117190063.230        -435.458          46.000                                                                  
C28  22725093.637   118335512.447        2324.820          47.000                                                                  
C30  25824215.944   134473470.119       -2647.414          42.000                                                                  
C32  25219642.497   131325249.086       -2087.017          40.000                                                                  
> 2023  8  2 19 31 12.8000000  0 28                     
G 5  23663407.272   124352047.776        2429.270          41.000    23663406.182    96897701.542        1892.837          39.000  
G10  24362172.913   128024091.288       -2315.452          43.000    24362176.005    99758998.589       -1804.314          40.000  
G13  22493329.657   118203256.052        3165.792          41.000                                                                  
G15  20296064.515   106656539.199        1641.097          46.000    20296060.441    83108990.779        1278.863          43.000  
G18  20494382.169   107698706.901       -1165.522          46.000    20494378.560    83921071.922        -908.188          45.000  
G23  21635443.386   113695034.610       -1586.277          44.000    21635440.169    88593535.578       -1236.144          42.000  
G24  21896662.127   115067756.180       -2681.512          45.000    21896660.519    89663192.993       -2089.550          42.000  
G27  24698852.932   129793354.944       -1760.838          41.000    24698854.933   101137675.603       -1372.132          38.000  
G29  23505607.556   123522789.884        3392.233          42.000    23505602.392    96251516.449        2643.224          37.000  
R 2  23893428.968   127499933.704        3267.640          41.000    23893435.097    99166614.394        2541.896          38.000  
R 3  20277611.282   108547640.283        1944.177          49.000    20277612.855    84425939.799        1512.051          48.000  
R 4  20186237.855   108096393.171        -932.230          50.000    20186239.088    84074973.585        -725.081          47.000  
R 5  23609295.653   126205214.121       -2897.847          44.000    23609304.999    98159662.515       -2253.786          40.000  
R12  23881498.626   127570689.679        -499.165          42.000    23881504.987    99221643.454        -388.199          40.000  
R17  22694381.432   121442198.330        4358.126          50.000    22694382.397    94455022.661        3389.621          45.000  
R18  19532504.242   104265837.021        1874.786          49.000    19532506.744    81095645.466        1458.153          46.000  
R19  19938269.638   106656293.970       -1881.625          37.000    19938274.212    82954923.045       -1463.460          43.000  
E 3  24511033.239   128806375.666       -1691.476          46.000    24511034.973    98695779.641       -1296.186          43.000  
E 5  23419426.063   123069911.940         792.708          46.000    23419427.135    94300322.293         607.222          44.000  
E 9  26838754.060   141038620.881        2553.646          40.000    26838757.384   108068557.486        1956.742          40.000  
E15  25610911.933   134586251.616       -2350.287          44.000    25610915.060   103124539.132       -1801.016          41.000  
C14  25256223.996   131515789.862        2390.652          38.000    25256220.494   101696350.925        1848.503          43.000  
C24  25629465.233   133459347.397        -868.869          41.000                                                                  
C25  25504805.889   132810247.185       -2485.783          42.000                                                                  
C27  22505102.359   117189976.110        -436.123          46.000                                                                  
C28  22725182.964   118335977.470        2324.641          47.000                                                                  
C30  25824114.108   134472940.672       -2647.665          42.000                                                                  
C32  25219562.408   131324831.684       -2087.564          40.000                                                                  
> 2023  8  2 19 31 13.0000000  0 28                     
G 5  23663499.923   124352534.830        2429.504          41.000    23663499.155    96898081.080        1892.949          39.000  
G10  24362085.016   128023629.403       -2315.452          43.000    24362087.768    99758638.686       -1804.219          39.000  
G13  22493450.326   118203890.482        3166.106          40.000                                                                  
G15  20296127.146   106656868.688        1641.599          46.000    20296123.018    83109247.517        1279.131          43.000  
G18  20494338.068   107698475.080       -1164.975          46.000    20494334.459    83920891.255        -907.903          45.000  
G23  21635383.257   113694718.567       -1586.087          44.000    21635379.754    88593289.315       -1236.010          42.000  
G24  21896560.309   115067221.095       -2681.344          45.000    21896558.737    89662776.034       -2089.472          42.000  
G27  24698786.173   129793003.978       -1760.744          41.000    24698788.174   101137402.135       -1372.026          38.000  
G29  23505736.732   123523469.490        3391.959          42.000    23505731.728    96252046.049        2643.325          37.000  
R 2  23893551.675   127500588.442        3267.607          41.000    23893557.661    99167123.621        2541.449          38.000  
R 3  20277684.170   108548030.355        1944.411          49.000    20277685.689    84426243.181        1512.162          48.000  
R 4  20186203.260   108096207.991        -931.900          50.000    20186204.458    84074829.547        -724.903          47.000  
R 5  23609187.367   126204635.702       -2898.071          43.000    23609196.963    98159212.712       -2253.886          40.000  
R12  23881480.131   127570591.115        -498.645          42.000    23881486.546    99221566.781        -387.953          41.000  
R17  22694544.558   121443071.187        4358.209          50.000    22694545.398    94455701.512        3389.498          45.000  
R18  19532574.646   104266213.224        1875.099          49.000    19532577.201    81095938.061        1458.293          46.000  
R19  19938199.627   106655918.939       -1881.156          37.000    19938204.148    82954631.348       -1463.186          43.000  
E 3  24510969.108   128806038.542       -1691.604          46.000    24510970.841    98695521.339       -1296.035          43.000  
E 5  23419456.458   123070071.659         792.596          46.000    23419457.512    94300444.686         607.462          44.000  
E 9  26838851.518   141039132.816        2553.589          40.000    26838854.788   108068949.755        1956.865          40.000  
E15  25610822.731   134585782.777       -2350.310          44.000    25610825.858   103124179.913       -1800.642          41.000  
C14  25256316.040   131516269.155        2390.573          38.000    25256312.519   101696721.554        1848.514          43.000  
C24  25629432.050   133459174.864        -868.534          41.000                                                                  
C25  25504710.648   132809751.220       -2485.694          42.000                                                                  
C27  22505085.794   117189890.194        -435.486          46.000                                                                  
C28  22725272.470   118336443.603        2324.759          47.000                                                                  
C30  25824012.648   134472412.356       -2647.392          42.000                                                                  
C32  25219482.533   131324415.381       -2087.503          40.000                                                                  
> 2023  8  2 19 31 13.2000000  0 28                     
G 5  23663592.413   124353020.787        2429.845          41.000    23663591.484    96898459.708        1893.357          40.000  
G10  24361996.939   128023166.414       -2314.698          43.000    24361999.477    99758277.925       -1803.616          40.000  
G13  22493570.853   118204523.839        3167.089          40.000                                                                  
G15  20296189.634   106657197.100        1642.427          46.000    20296185.614    83109503.406        1279.673          43.000  
G18  20494293.753   107698242.173       -1164.120          46.000    20494290.001    83920709.780        -907.076          46.000  
G23  21635322.895   113694401.444       -1585.288          44.000    21635319.303    88593042.215       -1235.267          42.000  
G24  21896458.277   115066684.863       -2680.987          45.000    21896456.669    89662358.221       -2088.774          42.000  
G27  24698719.236   129792651.944       -1759.710          41.000    24698720.880   101137127.774       -1371.568          38.000  
G29  23505865.674   123524148.002        3392.886          42.000    23505861.368    96252574.746        2643.766          38.000  
R 2  23893674.042   127501242.087        3268.507          40.000    23893680.100    99167631.972        2541.896          39.000  
R 3  20277756.897   108548419.321        1945.205          49.000    20277758.327    84426545.708        1512.878          48.000  
R 4  20186168.541   108096021.717        -930.922          50.000    20186169.702    84074684.665        -724.003          47.000  
R 5  23609078.831   126204056.261       -2896.970          43.000    23609088.516    98158761.978       -2253.344          40.000  
R12  23881461.351   127570491.456        -498.036          41.000    23881467.963    99221489.271        -387.266          41.000  
R17  22694707.506   121443942.883        4358.718          50.000    22694708.239    94456379.503        3390.130          45.000  
R18  19532644.871   104266588.356        1875.993          49.000    19532647.444    81096229.838        1459.181          46.000  
R19  19938129.205   106655542.863       -1879.904          37.000    19938133.779    82954338.805       -1462.370          43.000  
E 3  24510904.797   128805700.347       -1690.916          46.000    24510906.477    98695262.207       -1295.415          44.000  
E 5  23419486.621   123070230.319         793.334          46.000    23419487.711    94300566.255         608.172          44.000  
E 9  26838948.725   141039643.630        2554.082          40.000    26838951.960   108069341.147        1957.105          40.000  
E15  25610733.332   134585312.839       -2349.639          44.000    25610736.424   103123819.825       -1800.156          41.000  
C14  25256407.833   131516747.338        2391.054          38.000    25256404.366   101697091.316        1848.945          43.000  
C24  25629398.635   133459001.218        -867.964          41.000                                                                  
C25  25504615.120   132809254.105       -2485.403          42.000                                                                  
C27  22505069.051   117189803.182        -434.648          46.000                                                                  
C28  22725361.797   118336908.660        2325.524          47.000                                                                  
C30  25823910.973   134471882.921       -2646.900          42.000                                                                  
C32  25219402.480   131323998.041       -2086.318          40.000                                                                  
> 2023  8  2 19 31 13.4000000  0 28                     
G 5  23663684.796   124353506.505        2429.119          41.000    23663683.902    96898838.227        1892.982          40.000  
G10  24361908.827   128022703.300       -2314.771          43.000    24361911.311    99757917.058       -1803.560          40.000  
G13  22493691.379   118205156.949        3166.380          40.000    22493701.565    92107905.5771       2467.310          32.000  
G15  20296252.122   106657525.315        1641.756          46.000    20296248.012    83109759.179        1279.433          43.000  
G18  20494249.438   107698009.086       -1164.712          46.000    20494245.632    83920528.159        -907.579          46.000  
G23  21635262.569   113694084.157       -1585.634          44.000    21635258.906    88592794.992       -1235.524          43.000  
G24  21896356.227   115066148.466       -2681.311          45.000    21896354.708    89661940.231       -2089.394          43.000  
G27  24698652.191   129792299.716       -1760.358          41.000    24698653.781   101136853.375       -1371.406          38.000  
G29  23505994.510   123524826.364        3392.434          42.000    23505991.151    96253103.315        2643.347          39.000  
R 2  23893796.373   127501895.496        3267.674          41.000    23893802.520    99168140.193        2541.645          39.000  
R 3  20277829.517   108548808.090        1944.507          49.000    20277830.929    84426848.100        1512.436          48.000  
R 4  20186133.768   108095835.252        -931.604          50.000    20186135.019    84074539.650        -724.545          48.000  
R 5  23608970.330   126203476.612       -2897.607          43.000    23608979.961    98158311.151       -2253.434          40.000  
R12  23881442.732   127570391.540        -498.863          42.000    23881449.254    99221411.582        -387.864          41.000  
R17  22694870.418   121444814.362        4358.087          50.000    22694871.115    94457057.341        3389.716          45.000  
R18  19532715.132   104266963.304        1875.451          49.000    19532717.598    81096521.478        1458.885          46.000  
R19  19938058.783   106655166.572       -1880.709          37.000    19938063.393    82954046.160       -1462.627          43.000  
E 3  24510840.433   128805361.987       -1690.687          46.000    24510842.077    98695002.935       -1295.811          44.000  
E 5  23419516.802   123070388.793         793.451          46.000    23419517.874    94300687.668         607.563          44.000  
E 9  26839045.897   141040154.256        2554.143          40.000    26839049.131   108069732.406        1956.725          40.000  
E15  25610643.880   134584842.755       -2349.337          44.000    25610646.972   103123459.631       -1800.402          41.000  
C14  25256499.644   131517225.338        2390.707          38.000    25256496.195   101697460.920        1848.425          43.000  
C24  25629365.202   133458827.353        -868.623          41.000                                                                  
C25  25504519.592   132808756.774       -2486.096          42.000                                                                  
C27  22505052.326   117189716.030        -434.977          46.000                                                                  
C28  22725451.106   118337373.546        2325.111          47.000                                                                  
C30  25823809.280   134471353.331       -2647.241          42.000                                                                  
C32  25219322.445   131323580.479       -2087.134          41.000                                                                  
